{
"0":{"title":"The darkest skies i have ever seen, Far From the Light, Lake Pukaki New Zeakand [2738x3651] [OC]","afterClean":"The darkest skies i have ever seen, Far From the Light, Lake Pukaki New Zeakand","subreddit":"EarthPorn","url":"https:\/\/i.redd.it\/gtg6wrn84ws41.jpg","body":"","location":"Lake+Pukaki","longitude":170.16667,"latitude":-44.11667,"contryName":"New Zealand","contryCode":"NZ","name":"Lake Pukaki","test":true},
"1":{"title":"Sunset reflections on the Hayflats in Alaska. (1080x1280) OC","afterClean":"Sunset reflections on the Hayflats in Alaska.","subreddit":"EarthPorn","url":"https:\/\/i.redd.it\/yn8soot5pts41.jpg","body":"","location":"Alaska","longitude":-150.00028,"latitude":64.00028,"contryName":"United States","contryCode":"US","name":"Alaska","test":true},
"2":{"title":"The Three Sisters, Blue Mountains - Australia [OC] [1080x1350]","afterClean":"The Three Sisters, Blue Mountains - Australia ","subreddit":"EarthPorn","url":"https:\/\/i.redd.it\/nzpjdes0aws41.jpg","body":"","location":"Three+Sisters+Blue+Mountains+Australia","longitude":150.30989,"latitude":-33.73112,"contryName":"Australia","contryCode":"AU","name":"Echo Point - Three Sisters","test":true},
"3":{"title":"Alpine Lakes Wilderness in WA. Taken on the Pacific Crest Trail 2018 [1920x1080][OC]","afterClean":"Alpine Lakes Wilderness in WA. Taken on the Pacific Crest Trail ","subreddit":"EarthPorn","url":"https:\/\/i.redd.it\/tntih6pmcss41.jpg","body":"","location":"Alpine+Lakes","longitude":-120.04544,"latitude":38.69873,"contryName":"United States","contryCode":"US","name":"Caples Lake","test":true},
"4":{"title":"Through the fog of the ancient forest, Lake Waikaremoana, New Zealand [4032x3024] (OC)","afterClean":"Through the fog of the ancient forest, Lake Waikaremoana, New Zealand","subreddit":"EarthPorn","url":"https:\/\/i.redd.it\/6zps7osxevs41.jpg","body":"","location":"Lake+Waikaremoana+New+Zealand","longitude":177.08333,"latitude":-38.76667,"contryName":"New Zealand","contryCode":"NZ","name":"Lake Waikaremoana","test":true},
"5":{"title":"An early morning on the trail. Mt Hood National Forest, Oregon. [OC] [1600x2000]","afterClean":"An early morning on the trail. Mt Hood National Forest, Oregon. ","subreddit":"EarthPorn","url":"https:\/\/i.redd.it\/kb6r407jbts41.jpg","body":"","location":"Mt+Hood+National+Forest+Oregon","longitude":-121.70892,"latitude":45.33005,"contryName":"United States","contryCode":"US","name":"Mount Hood National Forest","test":true},
"6":{"title":"Moonset from inside a sea cave - Malibu, California - [OC] (1365x2048) @jackfusco","afterClean":"Moonset from inside a sea cave - Malibu, California - ","subreddit":"EarthPorn","url":"https:\/\/i.redd.it\/vkuzo9dhlws41.jpg","body":"","location":"Malibu+California","longitude":-118.7804,"latitude":34.02577,"contryName":"United States","contryCode":"US","name":"Malibu","test":true},
"7":{"title":"A chilly October sunrise - Grand Teton National Park - [OC] [4082x6124] - IG: @travlonghorns","afterClean":"A chilly October sunrise - Grand Teton National Park","subreddit":"EarthPorn","url":"https:\/\/i.redd.it\/n494mkavpus41.jpg","body":"","location":"Grand+Teton+National+Park","longitude":-110.68176,"latitude":43.79044,"contryName":"United States","contryCode":"US","name":"Grand Teton National Park","test":true},
"8":{"title":"Sunset over the Columbia River Gorge, Washigton State [4608x2592][OC]","afterClean":"Sunset over the Columbia River Gorge, Washigton State","subreddit":"EarthPorn","url":"https:\/\/i.redd.it\/d69pb9ti5vs41.jpg","body":"","location":"Columbia+River","longitude":-122.75302,"latitude":56.6665,"contryName":"Canada","contryCode":"CA","name":"Peace River Regional District","test":true},
"9":{"title":"Rolling hills within the Great Sand Dunes NP, CO [1080x1350] [OC]","afterClean":"Rolling hills within the Great Sand Dunes NP, CO","subreddit":"EarthPorn","url":"https:\/\/i.redd.it\/q1youknbgws41.jpg","body":"","location":"Great+Sand+Dunes+CO","longitude":-105.51212,"latitude":37.73287,"contryName":"United States","contryCode":"US","name":"Great Sand Dunes National Park and Preserve","test":true},
"10":{"title":"An old laurel tree in the fog forest of Madeira [OC][1080x1350]","afterClean":"An old laurel tree in the fog forest of Madeira","subreddit":"EarthPorn","url":"https:\/\/i.redd.it\/epv68wwbgus41.jpg","body":"","location":"Madeira","longitude":-16.94699,"latitude":32.76737,"contryName":"Portugal","contryCode":"PT","name":"Madeira","test":true},
"11":{"title":"Bryce Canyon National Park - Taken from Bryce Point (3820x5730) OC","afterClean":"Bryce Canyon National Park - Taken from Bryce Point","subreddit":"EarthPorn","url":"https:\/\/i.redd.it\/n1ew5o8yiws41.jpg","body":"","location":"Bryce+Canyon+National","longitude":-112.18271,"latitude":37.5839,"contryName":"United States","contryCode":"US","name":"Bryce Canyon National Park","test":true},
"12":{"title":"Avenue of the Giants in Northern California, taken in NOV 2019, [5355 \u00d7 4016][OC]","afterClean":"Avenue of the Giants in Northern California, taken in NOV , ","subreddit":"EarthPorn","url":"https:\/\/i.redd.it\/kli8vzlsgvs41.jpg","body":"","location":"Avenue+Northern+California+NOV","longitude":-73.59846,"latitude":40.71066,"contryName":"United States","contryCode":"US","name":"California Avenue Elementary School","test":true},
"13":{"title":"Storm born. Milford Sound, New Zealand {OC} (1500x1000) @williampatino_photography","afterClean":"Storm born. Milford Sound, New Zealand ","subreddit":"EarthPorn","url":"https:\/\/i.redd.it\/jln2u6phfus41.jpg","body":"","location":"Milford+Sound+New+Zealand","longitude":167.92684,"latitude":-44.67528,"contryName":"New Zealand","contryCode":"NZ","name":"Milford Sound Airport","test":true},
"14":{"title":"Antelope Valley poppies (3264x2448) OC","afterClean":"Antelope Valley poppies","subreddit":"EarthPorn","url":"https:\/\/i.redd.it\/cxfscptryws41.jpg","body":"","location":"Antelope+Valley","longitude":-105.47409,"latitude":44.22488,"contryName":"United States","contryCode":"US","name":"Antelope Valley-Crestview","test":true},
"15":{"title":"Sunset reflections at the Eagle river nature center in Alaska. (1544x2014) OC","afterClean":"Sunset reflections at the Eagle river nature center in Alaska.","subreddit":"EarthPorn","url":"https:\/\/i.redd.it\/fktc4mexbps41.jpg","body":"","location":"Eagle+Alaska","longitude":-149.56778,"latitude":61.32139,"contryName":"United States","contryCode":"US","name":"Eagle River","test":true},
"16":{"title":"The Matterhorn is reflected in the Stellisee about one hour before sunrise [OC][5047x3361]","afterClean":"The Matterhorn is reflected in the Stellisee about one hour before sunrise","subreddit":"EarthPorn","url":"https:\/\/i.redd.it\/8gvs301mzts41.jpg","body":"","location":"Stellisee","longitude":7.80026,"latitude":46.01343,"contryName":"Switzerland","contryCode":"CH","name":"Stellisee","test":true},
"17":{"title":"Popo eruption [OC] (4032x1960)","afterClean":"Popo eruption ","subreddit":"EarthPorn","url":"https:\/\/i.redd.it\/hyrtis74lws41.jpg","body":"","location":"Popo","longitude":1.83333,"latitude":6.28333,"contryName":"Benin","contryCode":"BJ","name":"Grand-Popo","test":true},
"18":{"title":"It's a beautiful day in the neighborhood. Wyoming, USA [6000x4000] [OC]","afterClean":"It's a beautiful day in the neighborhood. Wyoming, USA","subreddit":"EarthPorn","url":"https:\/\/i.redd.it\/d3e12cltmrs41.jpg","body":"","location":"Wyoming+USA","longitude":-107.5009,"latitude":43.00024,"contryName":"United States","contryCode":"US","name":"Wyoming","test":true},
"19":{"title":"Rainbow mountain [OC] (5168x2224)","afterClean":"Rainbow mountain ","subreddit":"EarthPorn","url":"https:\/\/i.redd.it\/jpbv8xueows41.jpg","body":"","location":"Rainbow","longitude":-119.408,"latitude":58.4914,"contryName":"Canada","contryCode":"CA","name":"Rainbow Lake Airport","test":true},
"20":{"title":"Hard rain in Beech Mountain, NC made for some gorgeous waterfalls [3494x2329][OC]","afterClean":"Hard rain in Beech Mountain, NC made for some gorgeous waterfalls","subreddit":"EarthPorn","url":"https:\/\/i.redd.it\/utz1b8g9jvs41.jpg","body":"","location":"Beech+Mountain+NC","longitude":-81.92979,"latitude":36.23546,"contryName":"United States","contryCode":"US","name":"Beech Mountain Township","test":true},
"21":{"title":"Misty Fjords National Monument earning its name in Rudyerd Bay, Alaska [OC] [4032x3024]","afterClean":"Misty Fjords National Monument earning its name in Rudyerd Bay, Alaska ","subreddit":"EarthPorn","url":"https:\/\/i.redd.it\/7a40aomxess41.jpg","body":"","location":"Rudyerd+Bay+Alaska","longitude":-130.74583,"latitude":55.58972,"contryName":"United States","contryCode":"US","name":"Rudyerd Bay","test":true},
"22":{"title":"South Chagrin Reservation, Ohio. [OC] [2439 x 3048]","afterClean":"South Chagrin Reservation, Ohio.  ","subreddit":"EarthPorn","url":"https:\/\/i.redd.it\/oenpw83a8us41.jpg","body":"","location":"South+Chagrin+Reservation+Ohio","longitude":-81.42345,"latitude":41.41561,"contryName":"United States","contryCode":"US","name":"South Chagrin Reservation","test":true},
"23":{"title":"Peering out The Window in Big Bend, TX [4928x3264] OC","afterClean":"Peering out The Window in Big Bend, TX","subreddit":"EarthPorn","url":"https:\/\/i.redd.it\/ax4inighvvs41.jpg","body":"","location":"TX","longitude":-95.36327,"latitude":29.76328,"contryName":"United States","contryCode":"US","name":"Houston","test":true},
"24":{"title":"Sunrise over Bryce Canyon,UT[960\u00d7615][OC]","afterClean":"Sunrise over Bryce Canyon,UT\u00d7","subreddit":"EarthPorn","url":"https:\/\/i.redd.it\/s9ctcgwjoxs41.jpg","body":"","location":"Bryce+Canyon","longitude":-112.18271,"latitude":37.5839,"contryName":"United States","contryCode":"US","name":"Bryce Canyon National Park","test":true},
"25":{"title":"The Cocos (Keeling) Islands, Australia [OC][2912x3640]","afterClean":"The Cocos Keeling Islands, Australia","subreddit":"EarthPorn","url":"https:\/\/i.redd.it\/9sbtr9d6ews41.jpg","body":"","location":"Cocos+Keeling+Islands+Australia","longitude":96.89497,"latitude":-12.11645,"contryName":"Cocos [Keeling] Islands","contryCode":"CC","name":"Bantam Village","test":true},
"26":{"title":"What if we could see in long exposure like cameras do? A milky way shot from New Zealand [1638x2048] [OC]","afterClean":"What if we could see in long exposure like cameras do? A milky way shot from New Zealand x","subreddit":"EarthPorn","url":"https:\/\/i.redd.it\/2nszvjh6gos41.jpg","body":"","location":"New+Zealand","longitude":174.0,"latitude":-42.0,"contryName":"New Zealand","contryCode":"NZ","name":"New Zealand","test":true},
"27":{"title":"Last light shining through, Washington state 2048x3400 [OC] IG: @mattfischer_photo","afterClean":"Last light shining through, Washington state","subreddit":"EarthPorn","url":"https:\/\/i.redd.it\/j3e897unrts41.jpg","body":"","location":"Washington","longitude":-77.03637,"latitude":38.89511,"contryName":"United States","contryCode":"US","name":"Washington","test":true},
"28":{"title":"Even more than spring flowers, I always look forward to these beautiful spring greens, Seryangji South Korea [OC] [3000x1300]","afterClean":"Even more than spring flowers, I always look forward to these beautiful spring greens, Seryangji South Korea ","subreddit":"EarthPorn","url":"https:\/\/i.redd.it\/qqfel2lahss41.jpg","body":"","location":"South+Korea","longitude":127.75,"latitude":36.5,"contryName":"South Korea","contryCode":"KR","name":"South Korea","test":true},
"29":{"title":"The Moment I realized how beautiful the Allg\u00e4u is [1500x1875] [OC]","afterClean":"The Moment I realized how beautiful the Allg\u00e4u is","subreddit":"EarthPorn","url":"https:\/\/i.redd.it\/ambtzsywtxs41.jpg","body":"","location":"Allgau","longitude":10.16667,"latitude":47.58333,"contryName":"Germany","contryCode":"DE","name":"Allg\u00e4u","test":true},
"30":{"title":"A different kind of Milk, Heaphy Track, New Zealand [OC] [3162x3162]","afterClean":"A different kind of Milk, Heaphy Track, New Zealand ","subreddit":"EarthPorn","url":"https:\/\/i.redd.it\/j4m6njblaws41.jpg","body":"","location":"Heaphy+Track+New+Zealand","longitude":172.16016,"latitude":-40.91825,"contryName":"New Zealand","contryCode":"NZ","name":"Heaphy Track","test":true},
"31":{"title":"Glade Creek waterfall at Propps Ridge, New Haven, West Virginia (Fayette county) [OC] [3072 X 2304]","afterClean":"Glade Creek waterfall at Propps Ridge, New Haven, West Virginia Fayette county  ","subreddit":"EarthPorn","url":"https:\/\/i.redd.it\/60ktnlhzwus41.jpg","body":"","location":"Ridge+New+Haven+West","longitude":-72.97205,"latitude":41.36037,"contryName":"United States","contryCode":"US","name":"West Rock Ridge State Park","test":true},
"32":{"title":"Yesterday's Sunset, BC, Canada [OC], [3000x2011], @Oliver_Wheeldon","afterClean":"Yesterday's Sunset, BC, Canada","subreddit":"EarthPorn","url":"https:\/\/i.redd.it\/s0o1aplzsus41.jpg","body":"","location":"Sunset+BC+Canada","longitude":-120.7696,"latitude":55.84989,"contryName":"Canada","contryCode":"CA","name":"Sunset Prairie","test":true},
"33":{"title":"The other-worldly landscape of Coyote Buttes South [OC][5472x3648]","afterClean":"The other-worldly landscape of Coyote Buttes South","subreddit":"EarthPorn","url":"https:\/\/i.redd.it\/4rfbjys44xs41.jpg","body":"","location":"Buttes+South","longitude":-111.88608,"latitude":44.03074,"contryName":"United States","contryCode":"US","name":"Juniper Buttes","test":true},
"34":{"title":"\"Season of Life\" near Gallup, New Mexico [1500 x 1000] [OC]","afterClean":"\"Season of Life\" near Gallup, New Mexico  x","subreddit":"EarthPorn","url":"https:\/\/i.redd.it\/daxo6per7ws41.jpg","body":"","location":"Gallup+New+Mexico","longitude":-108.74258,"latitude":35.52808,"contryName":"United States","contryCode":"US","name":"Gallup","test":true},
"35":{"title":"Days end. Fiordland, New Zealand {OC} (1500x1000) @williampatino_photography","afterClean":"Days end. Fiordland, New Zealand ","subreddit":"EarthPorn","url":"https:\/\/i.redd.it\/1pnaxnsnrxs41.jpg","body":"","location":"Fiordland+New+Zealand","longitude":167.33333,"latitude":-45.16667,"contryName":"New Zealand","contryCode":"NZ","name":"Fiordland","test":true},
"36":{"title":"Sierra Alpine Moonset, June Lake, California [OC][5762x3841]","afterClean":"Sierra Alpine Moonset, June Lake, California","subreddit":"EarthPorn","url":"https:\/\/i.redd.it\/8xa6u6fwxus41.jpg","body":"","location":"June+Lake+California","longitude":-119.07361,"latitude":37.78865,"contryName":"United States","contryCode":"US","name":"June Lake","test":true},
"37":{"title":"Palm Trees in Koh Chang, Thailand (3725 \u00d7 5580) [OC]","afterClean":"Palm Trees in Koh Chang, Thailand ","subreddit":"EarthPorn","url":"https:\/\/i.redd.it\/0bxmgjqb2xs41.jpg","body":"","location":"Koh+Chang+Thailand","longitude":102.29947,"latitude":12.04888,"contryName":"Thailand","contryCode":"TH","name":"Ko Chang","test":true},
"38":{"title":"Endless desert in Saudi Arabia. Taken at the Edge Of The World near Riyadh. [1616x1080] [OC]","afterClean":"Endless desert in Saudi Arabia. Taken at the Edge Of The World near Riyadh.","subreddit":"EarthPorn","url":"https:\/\/i.redd.it\/ieqlomvesvs41.jpg","body":"","location":"Saudi+Arabia+Riyadh","longitude":46.72185,"latitude":24.68773,"contryName":"Saudi Arabia","contryCode":"SA","name":"Riyadh","test":true},
"39":{"title":"Sunset from Tennent Mountain, Art Loeb Trail, Pisgah National Forest, NC(OC) [1467x2200]","afterClean":"Sunset from Tennent Mountain, Art Loeb Trail, Pisgah National Forest, NC","subreddit":"EarthPorn","url":"https:\/\/i.redd.it\/dv7ojybk8ts41.jpg","body":"","location":"Loeb+Trail","longitude":-82.86624,"latitude":35.27844,"contryName":"United States","contryCode":"US","name":"Art Loeb Trail","test":true},
"40":{"title":"Snowy trees. Estonia [OC] [4032\u00d73024]","afterClean":"Snowy trees. Estonia ","subreddit":"EarthPorn","url":"https:\/\/i.redd.it\/qhqcttjhtxs41.jpg","body":"","location":"Snowy","longitude":148.68576,"latitude":-36.30274,"contryName":"Australia","contryCode":"AU","name":"Snowy River","test":true},
"41":{"title":"Aoraki\/Mt. Cook National Park, New Zealand [OC] [2323 x 1742]","afterClean":"Aoraki\/Mt. Cook National Park, New Zealand  ","subreddit":"EarthPorn","url":"https:\/\/i.redd.it\/js0lju0vxvs41.jpg","body":"","location":"Cook+National+Park+New+Zealand","longitude":145.33127,"latitude":-15.81885,"contryName":"Australia","contryCode":"AU","name":"Cedar Bay National Park","test":true},
"42":{"title":"Stirling Falls, Milford Sound, NZ [OC][2000x1334]","afterClean":"Stirling Falls, Milford Sound, NZ","subreddit":"EarthPorn","url":"https:\/\/i.redd.it\/do75oomrqrs41.jpg","body":"","location":"Milford+Sound+NZ","longitude":167.92684,"latitude":-44.67528,"contryName":"New Zealand","contryCode":"NZ","name":"Milford Sound Airport","test":true},
"43":{"title":"Aerial image over the Utah Badlands. [OC] [1333x2000]","afterClean":"Aerial image over the Utah Badlands. ","subreddit":"EarthPorn","url":"https:\/\/i.redd.it\/tki95snxhms41.jpg","body":"","location":"Utah+Badlands","longitude":-113.29219,"latitude":39.19134,"contryName":"United States","contryCode":"US","name":"Badlands","test":true},
"44":{"title":"View from the top of Sigiriya, Sri Lanka (3824x2151) [OC]","afterClean":"View from the top of Sigiriya, Sri Lanka","subreddit":"EarthPorn","url":"https:\/\/i.redd.it\/46hu1sll9ws41.jpg","body":"","location":"Sigiriya+Sri+Lanka","longitude":80.75037,"latitude":7.94946,"contryName":"Sri Lanka","contryCode":"LK","name":"Sigiriya","test":true},
"45":{"title":"Endless Beauty in Northern Catskills | Upstate NY | [OC] [1248x1536]","afterClean":"Endless Beauty in Northern Catskills | Upstate NY | ","subreddit":"EarthPorn","url":"https:\/\/i.redd.it\/167ljeyguts41.jpg","body":"","location":"Northern+Catskills","longitude":-74.24987,"latitude":42.25036,"contryName":"United States","contryCode":"US","name":"Catskill Mountains","test":true},
"46":{"title":"A sea of bluebells in a secret cove in the Ozarks [OC] (1959x2939)","afterClean":"A sea of bluebells in a secret cove in the Ozarks ","subreddit":"EarthPorn","url":"https:\/\/i.imgur.com\/v7HFSkV.jpg","body":"","location":"Ozarks","longitude":-92.01682,"latitude":36.91672,"contryName":"United States","contryCode":"US","name":"Ozarks","test":true},
"47":{"title":"Havasu Falls, Havasupai [2574x3432] [OC]","afterClean":"Havasu Falls, Havasupai","subreddit":"EarthPorn","url":"https:\/\/i.redd.it\/fd9np5et6rs41.jpg","body":"","location":"Havasu+Falls","longitude":-112.69795,"latitude":36.25515,"contryName":"United States","contryCode":"US","name":"Havasu Falls","test":true},
"48":{"title":"Moon rising at Vilas, North Carolina [960 X 720] [OC]","afterClean":"Moon rising at Vilas, North Carolina ","subreddit":"EarthPorn","url":"https:\/\/i.redd.it\/fccvs7xmuus41.jpg","body":"","location":"Vilas+North+Carolina","longitude":-81.76761,"latitude":36.24568,"contryName":"United States","contryCode":"US","name":"Vilas","test":true},
"49":{"title":"One of the many breathtaking views of Glacier National Park, Montana [5184 x 3456] [OC]","afterClean":"One of the many breathtaking views of Glacier National Park, Montana ","subreddit":"EarthPorn","url":"https:\/\/i.redd.it\/7ble6tga8us41.jpg","body":"","location":"Glacier+National+Park+Montana","longitude":-113.80031,"latitude":48.68306,"contryName":"United States","contryCode":"US","name":"Glacier National Park","test":true},
"50":{"title":"A Hike In Portree Scotland [5988x3840] [OC]","afterClean":"A Hike In Portree Scotland","subreddit":"EarthPorn","url":"https:\/\/i.redd.it\/puuu5im6tss41.jpg","body":"","location":"Portree+Scotland","longitude":-6.19418,"latitude":57.41288,"contryName":"United Kingdom","contryCode":"GB","name":"Portree","test":true},
"51":{"title":"Sunrise in Monument Valley [oc][1350x1080] @mindz.eye","afterClean":"Sunrise in Monument Valley","subreddit":"EarthPorn","url":"https:\/\/i.redd.it\/dknxiwowzos41.jpg","body":"","location":"Monument+Valley","longitude":-110.20221,"latitude":37.01743,"contryName":"United States","contryCode":"US","name":"Monument Valley Airport","test":true},
"52":{"title":"Cloudland Canyon State Park , Rising Fawn, GA [OC] [5184x3456]","afterClean":"Cloudland Canyon State Park , Rising Fawn, GA ","subreddit":"EarthPorn","url":"https:\/\/i.redd.it\/g0a1l76u5us41.jpg","body":"","location":"Cloudland+Canyon+State","longitude":-85.48246,"latitude":34.8423,"contryName":"United States","contryCode":"US","name":"Cloudland Canyon State Park","test":true},
"53":{"title":"Clear mountain lakes are refreshing to the mind too. Glacier National Park, MT. [oc][1080x1350] ig;natureprofessor","afterClean":"Clear mountain lakes are refreshing to the mind too. Glacier National Park, MT natureprofessor","subreddit":"EarthPorn","url":"https:\/\/i.redd.it\/czqze2tiuns41.jpg","body":"","location":"Glacier+National+Park+MT","longitude":-113.80031,"latitude":48.68306,"contryName":"United States","contryCode":"US","name":"Glacier National Park","test":true},
"54":{"title":"I woke up to this view of an incredibly dramatic peak in the Swiss Alps [OC] [2953x4430]","afterClean":"I woke up to this view of an incredibly dramatic peak in the Swiss Alps ","subreddit":"EarthPorn","url":"https:\/\/i.redd.it\/predsu7e7qs41.jpg","body":"","location":"Swiss+Alps","longitude":7.75,"latitude":46.41667,"contryName":"Switzerland","contryCode":"CH","name":"Bernese Alps","test":true},
"55":{"title":"Visapur Fort,India [OC] [1920\u00d71080]","afterClean":"Visapur Fort,India ","subreddit":"EarthPorn","url":"https:\/\/i.redd.it\/upc5n1efjvs41.jpg","body":"","location":"Fort+India","longitude":100.37055,"latitude":-0.30907,"contryName":"Indonesia","contryCode":"ID","name":"Bukittinggi","test":true},
"56":{"title":"At Sunset near Bright Angel Point, Grand Canyon North Rim [3770x1832][OC]","afterClean":"At Sunset near Bright Angel Point, Grand Canyon North Rim","subreddit":"EarthPorn","url":"https:\/\/i.redd.it\/ii0dz9w0rvs41.jpg","body":"","location":"Grand+Canyon+North+Rim","longitude":-113.241,"latitude":36.115,"contryName":"United States","contryCode":"US","name":"Grand Canyon Lodge North Rim","test":true},
"57":{"title":"A waterfall, somewhere in Arkansas. [OC][4000X6000]","afterClean":"A waterfall, somewhere in Arkansas.","subreddit":"EarthPorn","url":"https:\/\/i.redd.it\/mxa4g4qtnns41.jpg","body":"","location":"Arkansas","longitude":-92.50044,"latitude":34.75037,"contryName":"United States","contryCode":"US","name":"Arkansas","test":true},
"58":{"title":"Red Rock Canyon, First Creek Trail [1066x1600] [OC]","afterClean":"Red Rock Canyon, First Creek Trail","subreddit":"EarthPorn","url":"https:\/\/flic.kr\/p\/2iQr6CZ","body":"","location":"First+Creek+Trail","longitude":-120.60896,"latitude":47.21846,"contryName":"United States","contryCode":"US","name":"First Creek Trail","test":true},
"59":{"title":"The Salt River just downstream of the Saguaro Dam in Mesa, AZ. [1534x1024] [OC]","afterClean":"The Salt River just downstream of the Saguaro Dam in Mesa, AZ.","subreddit":"EarthPorn","url":"https:\/\/i.redd.it\/mr6mtupowxs41.jpg","body":"","location":"Dam+Mesa+AZ","longitude":-111.34346,"latitude":33.5906,"contryName":"United States","contryCode":"US","name":"Horse Mesa Dam","test":true},
"60":{"title":"Sunrise at Bacuit Bay, Palawan, Philippines [OC] [5281 X 2971]","afterClean":"Sunrise at Bacuit Bay, Palawan, Philippines  ","subreddit":"EarthPorn","url":"https:\/\/i.redd.it\/0urjtscegss41.jpg","body":"","location":"Bacuit+Bay+Palawan+Philippines","longitude":119.38806,"latitude":11.07889,"contryName":"Philippines","contryCode":"PH","name":"Bacuit Bay","test":true},
"61":{"title":"Great view from Lake Minnewanka. Alberta, Canada [5184x3456] [OC]","afterClean":"Great view from Lake Minnewanka. Alberta, Canada","subreddit":"EarthPorn","url":"https:\/\/i.redd.it\/4vhnbqb1tts41.jpg","body":"","location":"Lake+Minnewanka+Alberta+Canada","longitude":-115.37306,"latitude":51.25806,"contryName":"Canada","contryCode":"CA","name":"Lake Minnewanka","test":true},
"62":{"title":"Aramoana Beach (Dunedin, New Zealand) [4896x3264] [OC]","afterClean":"Aramoana Beach Dunedin, New Zealand","subreddit":"EarthPorn","url":"https:\/\/i.redd.it\/czky4tfc9us41.jpg","body":"","location":"Beach+Dunedin+New+Zealand","longitude":170.51667,"latitude":-45.9,"contryName":"New Zealand","contryCode":"NZ","name":"Ocean Beach","test":true},
"63":{"title":"[OC] \"The Spur\", Great Smoky Mountains National Park [5982x3984]","afterClean":"\"The Spur\", Great Smoky Mountains National Park","subreddit":"EarthPorn","url":"https:\/\/i.redd.it\/fajtn3pgjus41.jpg","body":"","location":"Smoky+Mountains+National+Park","longitude":-83.50877,"latitude":35.60065,"contryName":"United States","contryCode":"US","name":"Great Smoky Mountains National Park","test":true},
"64":{"title":"[OC] [720x540] white mountains from the top of Mt Lafayette, N.H. U.S.A","afterClean":"x white mountains from the top of Mt Lafayette, N.H. U.S.A","subreddit":"EarthPorn","url":"https:\/\/i.redd.it\/3vxwu2a25vs41.jpg","body":"","location":"Mt+Lafayette","longitude":-93.9605,"latitude":38.94473,"contryName":"United States","contryCode":"US","name":"Wagon Knob","test":true},
"65":{"title":"Early morning, biesbosch, Netherlands. [OC] 960 \u00d7720","afterClean":"Early morning, biesbosch, Netherlands.  ","subreddit":"EarthPorn","url":"https:\/\/i.redd.it\/9083omlsyrs41.jpg","body":"","location":"Netherlands","longitude":5.75,"latitude":52.25,"contryName":"Netherlands","contryCode":"NL","name":"Netherlands","test":true},
"66":{"title":"Single image of the supermoon above Mt. Hood from Happy Valley, Oregon [OC] [2707x1804]","afterClean":"Single image of the supermoon above Mt. Hood from Happy Valley, Oregon ","subreddit":"EarthPorn","url":"https:\/\/i.redd.it\/q1jeo351sls41.jpg","body":"","location":"Valley+Oregon","longitude":-122.87311,"latitude":42.36955,"contryName":"United States","contryCode":"US","name":"Rogue Valley International - Medford Airport","test":true},
"67":{"title":"Haunting Oak Woodland in Southern California (2016 x 1512) [OC]","afterClean":"Haunting Oak Woodland in Southern California ","subreddit":"EarthPorn","url":"https:\/\/i.redd.it\/0nxqid5oxts41.jpg","body":"","location":"Oak+Woodland","longitude":-118.90565,"latitude":34.76248,"contryName":"United States","contryCode":"US","name":"Hungry Valley Oak Woodland Natural Preserve","test":true},
"68":{"title":"[OC] Two Medicine Lake, Glacier National Park, MO [4644x3096] IG: saundersdvm","afterClean":"Two Medicine Lake, Glacier National Park, MO saundersdvm","subreddit":"EarthPorn","url":"https:\/\/i.redd.it\/4eygxetmnus41.jpg","body":"","location":"National+Park+MO","longitude":21.66667,"latitude":-11.88333,"contryName":"Angola","contryCode":"AO","name":"Parque Nacional da Cameia","test":true},
"69":{"title":"I love cloudy days. Inks Lake, TX. [OC] [1080X1075]","afterClean":"I love cloudy days. Inks Lake, TX.  X","subreddit":"EarthPorn","url":"https:\/\/i.redd.it\/o0s2u9ivnus41.jpg","body":"","location":"Lake+TX","longitude":-95.43439,"latitude":29.03386,"contryName":"United States","contryCode":"US","name":"Lake Jackson","test":true},
"70":{"title":"Milky Way over Feggeklit, Denmark [1175x1700][OC]","afterClean":"Milky Way over Feggeklit, Denmark","subreddit":"EarthPorn","url":"https:\/\/i.redd.it\/8act7n6j3ts41.jpg","body":"","location":"Feggeklit+Denmark","longitude":8.92004,"latitude":56.96208,"contryName":"Denmark","contryCode":"DK","name":"Feggeklit","test":true},
"71":{"title":"I like this abstract earthporn like looking inside a crevasse on a glacier in Iceland [OC] [1990x2875] - more info about my abstract landscapes in the comments","afterClean":"I like this abstract earthporn like looking inside a crevasse on a glacier in Iceland more info about my abstract landscapes in the comments","subreddit":"EarthPorn","url":"https:\/\/i.redd.it\/xcl4kwiz8ts41.jpg","body":"","location":"Iceland","longitude":-18.0,"latitude":65.0,"contryName":"Iceland","contryCode":"IS","name":"Iceland","test":true},
"72":{"title":"Alpine Beauty, Les Deux Alpes, January 2020 [OC][6000x4000] IG: @michal__duda","afterClean":"Alpine Beauty, Les Deux Alpes, January  x","subreddit":"EarthPorn","url":"https:\/\/i.redd.it\/5lims292zts41.jpg","body":"","location":"Les+Deux+Alpes","longitude":6.12086,"latitude":45.0069,"contryName":"France","contryCode":"FR","name":"Les Deux Alpes","test":true},
"73":{"title":"View at Traunsee, Austria, on the way to 'Katzenstein' [OC] [4032x3024px]","afterClean":"View at Traunsee, Austria, on the way to 'Katzenstein'  xpx","subreddit":"EarthPorn","url":"https:\/\/i.redd.it\/xubrp3w57us41.jpg","body":"","location":"Traunsee+Austria","longitude":13.8,"latitude":47.85,"contryName":"Austria","contryCode":"AT","name":"Traunsee","test":true},
"74":{"title":"Sunrise at 4000m on Mt. Kinabalu, Borneo [OC] [4288 \u00d7 2848]","afterClean":"Sunrise at m on Mt. Kinabalu, Borneo  ","subreddit":"EarthPorn","url":"https:\/\/i.redd.it\/bblnug7jcts41.jpg","body":"","location":"Borneo","longitude":114.0,"latitude":1.0,"contryName":"Indonesia","contryCode":"ID","name":"Borneo","test":true},
"75":{"title":"Sri Lanka west province [4032x3024] [OC]","afterClean":"Sri Lanka west province","subreddit":"EarthPorn","url":"https:\/\/i.redd.it\/62edaxsnaus41.jpg","body":"","location":"Sri+Lanka","longitude":80.75,"latitude":7.75,"contryName":"Sri Lanka","contryCode":"LK","name":"Sri Lanka","test":true},
"76":{"title":"Fallen tree in Shiratani Unsuiko on Yakushima, Japan [4000x3000][OC]","afterClean":"Fallen tree in Shiratani Unsuiko on Yakushima, Japan","subreddit":"EarthPorn","url":"https:\/\/imgur.com\/XV1HbOi","body":"","location":"Yakushima+Japan","longitude":130.65902,"latitude":30.38557,"contryName":"Japan","contryCode":"JP","name":"Yakushima Airport","test":true},
"77":{"title":"Rio Verde Arizona after the rain [OC] (4898x3265)","afterClean":"Rio Verde Arizona after the rain ","subreddit":"EarthPorn","url":"https:\/\/i.redd.it\/wr6vqmaywss41.jpg","body":"","location":"Rio+Verde+Arizona","longitude":-111.67569,"latitude":33.72254,"contryName":"United States","contryCode":"US","name":"Rio Verde","test":true},
"78":{"title":"A spring picture I took in the forest the other day [OC] Denmark [4608x3456]","afterClean":"A spring picture I took in the forest the other day  Denmark","subreddit":"EarthPorn","url":"https:\/\/imgur.com\/w1Pw07M","body":"","location":"Denmark","longitude":10.0,"latitude":56.0,"contryName":"Denmark","contryCode":"DK","name":"Denmark","test":true},
"79":{"title":"Milford Sound, New Zealand [OC] [2000x2500]","afterClean":"Milford Sound, New Zealand ","subreddit":"EarthPorn","url":"https:\/\/i.redd.it\/fdsdvy6j5os41.jpg","body":"","location":"Milford+Sound+New+Zealand","longitude":167.92684,"latitude":-44.67528,"contryName":"New Zealand","contryCode":"NZ","name":"Milford Sound Airport","test":true},
"80":{"title":"A glimpse of the natural beauty that used to cover the Sacramento Valley. Willow Creek, Folsom, CA [OC] [4032x3024]","afterClean":"A glimpse of the natural beauty that used to cover the Sacramento Valley. Willow Creek, Folsom, CA ","subreddit":"EarthPorn","url":"https:\/\/imgur.com\/Q0r6y2d","body":"","location":"Willow+Creek+Folsom+CA","longitude":-121.1373,"latitude":38.6723,"contryName":"United States","contryCode":"US","name":"Synergy Falls Willow Creek","test":true},
"81":{"title":"Bryce Canyon National Park featuring our magnificent galaxy, The Milky Way [5735\u00d73823] [OC]","afterClean":"Bryce Canyon National Park featuring our magnificent galaxy, The Milky Way \u00d7","subreddit":"EarthPorn","url":"https:\/\/i.redd.it\/ozcp4ko2rrs41.jpg","body":"","location":"Bryce+Canyon+National","longitude":-112.18271,"latitude":37.5839,"contryName":"United States","contryCode":"US","name":"Bryce Canyon National Park","test":true},
"82":{"title":"Rolling Hills of Channel Islands National Park, California, United States [OC] [4032x3024]","afterClean":"Rolling Hills of Channel Islands National Park, California, United States ","subreddit":"EarthPorn","url":"https:\/\/i.redd.it\/v20j6a05xos41.jpg","body":"","location":"National+Park+California+United+States","longitude":-121.40735,"latitude":40.49368,"contryName":"United States","contryCode":"US","name":"Mt. Lassen Volcanic National Park","test":true},
"83":{"title":"Hv\u00edtserkur [5792x3861] [OC] IG: @dani.tes.dum","afterClean":"Hv\u00edtserkur","subreddit":"EarthPorn","url":"https:\/\/i.redd.it\/n72wmsjd6ss41.jpg","body":"","location":"Hvitserkur","longitude":-21.18333,"latitude":64.45,"contryName":"Iceland","contryCode":"IS","name":"Hv\u00edtserkur","test":true},
"84":{"title":"Sunset in the Lemaire Channel, Antarctica [OC] [2560x1701]","afterClean":"Sunset in the Lemaire Channel, Antarctica ","subreddit":"EarthPorn","url":"https:\/\/i.redd.it\/96gg0adp9ss41.jpg","body":"","location":"Lemaire+Channel+Antarctica","longitude":-63.96033,"latitude":-65.08131,"contryName":"Antarctica","contryCode":"AQ","name":"Lemaire Channel","test":true},
"85":{"title":"Early April sunset breaking through turbulent clouds over the Ozarks [OC] (2939x4408)","afterClean":"Early April sunset breaking through turbulent clouds over the Ozarks ","subreddit":"EarthPorn","url":"https:\/\/i.imgur.com\/gExVhtn.jpg","body":"","location":"April","longitude":142.5399,"latitude":-4.6746,"contryName":"Papua New Guinea","contryCode":"PG","name":"April River Airport","test":true},
"86":{"title":"Secluded lagoon off the East Fork Quinault, Olympic National Park, Wa [1620x2000] [OC]","afterClean":"Secluded lagoon off the East Fork Quinault, Olympic National Park, Wa","subreddit":"EarthPorn","url":"https:\/\/i.redd.it\/ggb4lo76fps41.jpg","body":"","location":"Olympic+National+Park","longitude":-123.49825,"latitude":47.96909,"contryName":"United States","contryCode":"US","name":"Olympic National Park","test":true},
"87":{"title":"Missing climbing local peaks. Roc d'Enfer, Haute Savoie, France. (5632 \u00d7 2910) [OC]","afterClean":"Missing climbing local peaks. Roc d'Enfer, Haute Savoie, France. ","subreddit":"EarthPorn","url":"https:\/\/i.redd.it\/p17dwmloirs41.jpg","body":"","location":"Roc+Haute+Savoie+France","longitude":6.6426,"latitude":46.1827,"contryName":"France","contryCode":"FR","name":"Roc d'Enfer","test":true},
"88":{"title":"Off the highway in Montana, USA [4032x1908] [OC]","afterClean":"Off the highway in Montana, USA","subreddit":"EarthPorn","url":"https:\/\/i.imgur.com\/RW6TIcv.jpg","body":"","location":"Montana+USA","longitude":-109.75102,"latitude":47.00025,"contryName":"United States","contryCode":"US","name":"Montana","test":true},
"89":{"title":"Mt Potts Reflecting on Lake Camp, NZ [OC][2000x1334]","afterClean":"Mt Potts Reflecting on Lake Camp, NZ","subreddit":"EarthPorn","url":"https:\/\/i.redd.it\/bwk2c214dqs41.jpg","body":"","location":"Lake+Camp+NZ","longitude":172.52016,"latitude":-41.06826,"contryName":"New Zealand","contryCode":"NZ","name":"Camp Lake","test":true},
"90":{"title":"It's for the views like these that we go to the mountains for. Uttarakhand, India [OC] [1080x566] More details in comments","afterClean":"It's for the views like these that we go to the mountains for. Uttarakhand, India More details in comments","subreddit":"EarthPorn","url":"https:\/\/i.imgur.com\/s6E7yDr.jpg","body":"","location":"Uttarakhand+India","longitude":79.25,"latitude":30.25,"contryName":"India","contryCode":"IN","name":"Uttarakhand","test":true},
"91":{"title":"\"World on the Scales\", Panorama of Giant Causeway in the Evening, Northern Ireland, United Kingdom [OC] [2048x1365]","afterClean":"\"World on the Scales\", Panorama of Giant Causeway in the Evening, Northern Ireland, United Kingdom ","subreddit":"EarthPorn","url":"https:\/\/i.redd.it\/b3o9v7d3nks41.jpg","body":"","location":"Causeway+Northern+Ireland+United+Kingdom","longitude":-6.59081,"latitude":55.06014,"contryName":"United Kingdom","contryCode":"GB","name":"Causeway Coast and Glens","test":true},
"92":{"title":"Skogafoss, Iceland [3500x2379] [OC]","afterClean":"Skogafoss, Iceland","subreddit":"EarthPorn","url":"https:\/\/i.redd.it\/vu1esfn8brs41.jpg","body":"","location":"Skogafoss+Iceland","longitude":-19.51151,"latitude":63.53211,"contryName":"Iceland","contryCode":"IS","name":"Sk\u00f3gafoss","test":true},
"93":{"title":"South Island New Zealand road tripping through the fog (OC) [6000 x 4000]","afterClean":"South Island New Zealand road tripping through the fog  ","subreddit":"EarthPorn","url":"https:\/\/i.redd.it\/6sw6qqnp1ss41.jpg","body":"","location":"South+Island+New+Zealand","longitude":171.0,"latitude":-43.0,"contryName":"New Zealand","contryCode":"NZ","name":"South Island","test":true},
"94":{"title":"Morning after the Storm in the Fjords. Norway. [2232x1488][OC] @liamsear.photo","afterClean":"Morning after the Storm in the Fjords. Norway.","subreddit":"EarthPorn","url":"https:\/\/i.imgur.com\/jtMLihn.jpg","body":"","location":"Fjords+Norway","longitude":10.4457,"latitude":60.4153,"contryName":"Norway","contryCode":"NO","name":"Fjords","test":true},
"95":{"title":"The limestone cliffs of Scout Scar on a glorious spring day: Scout Scar, Lake District, England [OC] [6000x4000]","afterClean":"The limestone cliffs of Scout Scar on a glorious spring day Scout Scar, Lake District, England ","subreddit":"EarthPorn","url":"https:\/\/i.redd.it\/myveywuacts41.jpg","body":"","location":"England","longitude":-71.0,"latitude":44.0,"contryName":"United States","contryCode":"US","name":"New England","test":true},
"96":{"title":"Fall 2019 in the Adirondacks mountains. Giant Washbowl, NY. [6016x4016] [OC] (ig: @shredeye)","afterClean":"Fall  in the Adirondacks mountains. Giant Washbowl, NY.","subreddit":"EarthPorn","url":"https:\/\/i.redd.it\/jk3dkyucxns41.jpg","body":"","location":"Giant+Washbowl+NY","longitude":-73.74002,"latitude":44.14322,"contryName":"United States","contryCode":"US","name":"Giant Washbowl","test":true},
"97":{"title":"River views in Southern Oregon [OC] [2160x1350]","afterClean":"River views in Southern Oregon ","subreddit":"EarthPorn","url":"https:\/\/i.redd.it\/babqs2yosns41.jpg","body":"","location":"Southern+Oregon","longitude":-122.69472,"latitude":42.17667,"contryName":"United States","contryCode":"US","name":"Southern Oregon University Nat","test":true},
"98":{"title":"This waterfall appeared overnight during a rainstorm when I was backpacking in New Zealand [OC] [5015x3343]","afterClean":"This waterfall appeared overnight during a rainstorm when I was backpacking in New Zealand ","subreddit":"EarthPorn","url":"https:\/\/i.redd.it\/ngtctjw48qs41.jpg","body":"","location":"New+Zealand","longitude":174.0,"latitude":-42.0,"contryName":"New Zealand","contryCode":"NZ","name":"New Zealand","test":true},
"99":{"title":"Evening in Glacier National Park [OC] [2400x1800]","afterClean":"Evening in Glacier National Park ","subreddit":"EarthPorn","url":"https:\/\/i.redd.it\/6o1p4hkcios41.jpg","body":"","location":"Glacier+National+Park","longitude":-113.80031,"latitude":48.68306,"contryName":"United States","contryCode":"US","name":"Glacier National Park","test":true},
"100":{"title":"Hilly hills at Moko Hills, West Java, Indonesia [OC] [1920x1440]","afterClean":"Hilly hills at Moko Hills, West Java, Indonesia ","subreddit":"EarthPorn","url":"https:\/\/i.redd.it\/yzeqeqfu7ss41.jpg","body":"","location":"Hills+West+Java+Indonesia","longitude":107.58635,"latitude":-6.87048,"contryName":"Indonesia","contryCode":"ID","name":"Summer Hills Bandung","test":true},
"101":{"title":"A lovely couple embraces under a starry night sky, Daedunsan South Korea [OC] [2048x1326]","afterClean":"A lovely couple embraces under a starry night sky, Daedunsan South Korea ","subreddit":"EarthPorn","url":"https:\/\/i.redd.it\/kse9mvimlks41.jpg","body":"","location":"Daedunsan+South+Korea","longitude":127.3205,"latitude":36.1246,"contryName":"South Korea","contryCode":"KR","name":"Taedun-san","test":true},
"102":{"title":"Post storm sunset in Arizona over the weekend provided some excellent light! F\/11 1\/15 iso100 [4588x3059] [OC]","afterClean":"Post storm sunset in Arizona over the weekend provided some excellent light! F\/ \/5  x","subreddit":"EarthPorn","url":"https:\/\/i.redd.it\/ygcnvlrggos41.jpg","body":"","location":"Post+Arizona","longitude":-109.55995,"latitude":35.70727,"contryName":"United States","contryCode":"US","name":"Hubbell Trading Post National Historic Site","test":true},
"103":{"title":"Wall of Windows, Bryce Canyon National Park, Utah [4032 x 1960] [OC]","afterClean":"Wall of Windows, Bryce Canyon National Park, Utah ","subreddit":"EarthPorn","url":"https:\/\/i.redd.it\/monnb2xjlqs41.jpg","body":"","location":"Canyon+National+Park+Utah","longitude":-112.18271,"latitude":37.5839,"contryName":"United States","contryCode":"US","name":"Bryce Canyon National Park","test":true},
"104":{"title":"\"Gold Dusk\" at Joshua Tree, California. [1500 x 1000] [OC]","afterClean":"\"Gold Dusk\" at Joshua Tree, California. ","subreddit":"EarthPorn","url":"https:\/\/i.redd.it\/nu8y9et0gps41.jpg","body":"","location":"Joshua+Tree+California","longitude":-115.90099,"latitude":33.87343,"contryName":"United States","contryCode":"US","name":"Joshua Tree National Park","test":true},
"105":{"title":"Stream To Nordenskj\u00f6ld Lake [OC] [4032x3024]","afterClean":"Stream To Nordenskj\u00f6ld Lake ","subreddit":"EarthPorn","url":"https:\/\/i.redd.it\/cp2h21pn2rs41.jpg","body":"","location":"Nordenskjold+Lake","longitude":-72.9608,"latitude":-51.03604,"contryName":"Chile","contryCode":"CL","name":"Lago Nordenskj\u00f6ld","test":true},
"106":{"title":"Germany on a foggy day. [OC] [6000 x 4000]","afterClean":"Germany on a foggy day.  ","subreddit":"EarthPorn","url":"https:\/\/i.redd.it\/o9krfns0srs41.jpg","body":"","location":"Germany","longitude":10.5,"latitude":51.5,"contryName":"Germany","contryCode":"DE","name":"Germany","test":true},
"107":{"title":"Unknown glacier, New Zealand South Island. [ 3648 x 5472 ] [ OC ]","afterClean":"Unknown glacier, New Zealand South Island.  ","subreddit":"EarthPorn","url":"https:\/\/i.redd.it\/6th5zysnbqs41.jpg","body":"","location":"Unknown+New+Zealand","longitude":168.27006,"latitude":-44.62835,"contryName":"New Zealand","contryCode":"NZ","name":"Lake Unknown","test":true},
"108":{"title":"South Prong Riverbed, Caprock Canyon SP [OC] [2377 x 1585]","afterClean":"South Prong Riverbed, Caprock Canyon SP  ","subreddit":"EarthPorn","url":"https:\/\/i.redd.it\/or31rcgxkns41.jpg","body":"","location":"SP","longitude":-49.0,"latitude":-22.0,"contryName":"Brazil","contryCode":"BR","name":"S\u00e3o Paulo","test":true},
"109":{"title":"Lone Survivor [OC] [1167X1751] Joshua Tree National Park","afterClean":"Lone Survivor Joshua Tree National Park","subreddit":"EarthPorn","url":"https:\/\/i.redd.it\/3gj7s7eo6os41.jpg","body":"","location":"Joshua+Tree+National+Park","longitude":-115.90099,"latitude":33.87343,"contryName":"United States","contryCode":"US","name":"Joshua Tree National Park","test":true},
"110":{"title":"[OC] Sunset view from top of the mountain. (S\u00e4len, Sweden) 1192 x 2120","afterClean":"Sunset view from top of the mountain. S\u00e4len, Sweden ","subreddit":"EarthPorn","url":"https:\/\/i.redd.it\/tuyri9xg7ps41.jpg","body":"","location":"Salen+Sweden","longitude":13.26667,"latitude":61.15,"contryName":"Sweden","contryCode":"SE","name":"S\u00e4len","test":true},
"111":{"title":"\u201cCoalesce\u201d Narooma, Australia. Checkout @mattyjameshopkins on Instagram for more! [1638x2048][OC]","afterClean":"\u201cCoalesce\u201d Narooma, Australia. Checkout  on  for more!","subreddit":"EarthPorn","url":"https:\/\/i.redd.it\/z327wbd21js41.jpg","body":"","location":"Australia","longitude":135.0,"latitude":-25.0,"contryName":"Australia","contryCode":"AU","name":"Australia","test":true},
"112":{"title":"Turin, Italy [5152x2896] [OC]","afterClean":"Turin, Italy","subreddit":"EarthPorn","url":"https:\/\/i.redd.it\/5eaaybifhrs41.jpg","body":"","location":"Turin+Italy","longitude":7.68682,"latitude":45.07049,"contryName":"Italy","contryCode":"IT","name":"Turin","test":true},
"113":{"title":"Wharariki, New Zealand [OC][2048x1533]","afterClean":"Wharariki, New Zealand","subreddit":"EarthPorn","url":"https:\/\/i.redd.it\/zf0spz5f3os41.jpg","body":"","location":"Wharariki+New+Zealand","longitude":172.66016,"latitude":-40.49824,"contryName":"New Zealand","contryCode":"NZ","name":"Wharariki Beach","test":true},
"114":{"title":"Fall Creek, OR [OC] (2286x4831) One of my favorite places :)","afterClean":"Fall Creek, OR One of my favorite places","subreddit":"EarthPorn","url":"https:\/\/i.redd.it\/c1kr2zhgins41.jpg","body":"","location":"Creek+OR","longitude":-124.07317,"latitude":44.54567,"contryName":"United States","contryCode":"US","name":"Lost Creek State Recreation Site","test":true},
"115":{"title":"Rainbow over Savage River, Denali National Park and Preserve (OC) (1707 x2560)","afterClean":"Rainbow over Savage River, Denali National Park and Preserve  ","subreddit":"EarthPorn","url":"https:\/\/i.redd.it\/hloa56a7ios41.jpg","body":"","location":"Denali+National+Park","longitude":-148.91056,"latitude":63.7325,"contryName":"United States","contryCode":"US","name":"McKinley National Park Airport","test":true},
"116":{"title":"WA State (4240X2384) OC","afterClean":"WA State","subreddit":"EarthPorn","url":"https:\/\/i.redd.it\/7rmafj347ps41.jpg","body":"","location":"WA+State","longitude":115.8614,"latitude":-31.95224,"contryName":"Australia","contryCode":"AU","name":"Perth","test":true},
"117":{"title":"Dark Fjords of Norway. [OC][2175x1088]","afterClean":"Dark Fjords of Norway.","subreddit":"EarthPorn","url":"https:\/\/i.redd.it\/3m8zv8h0fgs41.jpg","body":"","location":"Fjords+Norway","longitude":10.4457,"latitude":60.4153,"contryName":"Norway","contryCode":"NO","name":"Fjords","test":true},
"118":{"title":"Zero Point - Yume Samdong - [OC] [3609 x 2407]","afterClean":"Zero Point - Yume Samdong -  ","subreddit":"EarthPorn","url":"https:\/\/i.redd.it\/v2d7tgjdops41.jpg","body":"","location":"Zero+Point","longitude":-37.15,"latitude":-54.11667,"contryName":"South Georgia and South Sandwich Islands","contryCode":"GS","name":"Zero Point","test":true},
"119":{"title":"Black sand beach at Reynisfjara, Iceland [3638x2724] [OC]","afterClean":"Black sand beach at Reynisfjara, Iceland","subreddit":"EarthPorn","url":"https:\/\/i.redd.it\/1spktwehvls41.jpg","body":"","location":"Iceland","longitude":-18.0,"latitude":65.0,"contryName":"Iceland","contryCode":"IS","name":"Iceland","test":true},
"120":{"title":"Sunset glow in Wyoming\u2019s Cloud Peak Wilderness [OC] [4095 x 2669 px]","afterClean":"Sunset glow in Wyoming\u2019s Cloud Peak Wilderness px","subreddit":"EarthPorn","url":"https:\/\/i.redd.it\/6saj2izrens41.jpg","body":"","location":"Wyoming+Cloud+Peak+Wilderness","longitude":-107.20779,"latitude":44.40299,"contryName":"United States","contryCode":"US","name":"Cloud Peak Wilderness","test":true},
"121":{"title":"With all that\u2018s going on, I\u2018m looking forward to going on hikes again to escape it all. Here\u2018s a view of Oeschinensee, Switzerland. Stay safe, folks! [3024 x 4032] [OC]","afterClean":"With all that\u2018s going on, I\u2018m looking forward to going on hikes again to escape it all. Here\u2018s a view of Oeschinensee, Switzerland. Stay safe, folks! ","subreddit":"EarthPorn","url":"https:\/\/i.imgur.com\/jkajR3X.jpg","body":"","location":"Oeschinensee+Switzerland","longitude":7.72668,"latitude":46.49835,"contryName":"Switzerland","contryCode":"CH","name":"Oeschinensee","test":true},
"122":{"title":"Mirror Lake, New Zealand [OC] [5472 x 3648]","afterClean":"Mirror Lake, New Zealand  ","subreddit":"EarthPorn","url":"https:\/\/i.redd.it\/n7v5g1cpeos41.jpg","body":"","location":"Mirror+Lake+New+Zealand","longitude":172.20016,"latitude":-41.13826,"contryName":"New Zealand","contryCode":"NZ","name":"Mirror Tarn","test":true},
"123":{"title":"Rocky coast in Lofoten, Norway [OC] [3636x5455]","afterClean":"Rocky coast in Lofoten, Norway ","subreddit":"EarthPorn","url":"https:\/\/i.redd.it\/0qotk64gsns41.jpg","body":"","location":"Lofoten+Norway","longitude":12.79496,"latitude":68.20483,"contryName":"Norway","contryCode":"NO","name":"Lofoten","test":true},
"124":{"title":"Eibsee, Bavaria, Germany [1280x854][OC] IG: konstantin.kraemer","afterClean":"Eibsee, Bavaria, Germany konstantin.kraemer","subreddit":"EarthPorn","url":"https:\/\/i.redd.it\/i4qg5wzq4ls41.jpg","body":"","location":"Eibsee+Bavaria+Germany","longitude":10.97311,"latitude":47.45601,"contryName":"Germany","contryCode":"DE","name":"Eibsee","test":true},
"125":{"title":"Alaska in a Nutshell [OC][1898x2947]","afterClean":"Alaska in a Nutshell","subreddit":"EarthPorn","url":"https:\/\/imgur.com\/gf5XnCy","body":"","location":"Nutshell","longitude":-77.06667,"latitude":18.16667,"contryName":"Jamaica","contryCode":"JM","name":"Falkland","test":true},
"126":{"title":"The Pursuit of Perfection. Northern Beaches, Sydney, Australia. [OC] [2048x1365]","afterClean":"The Pursuit of Perfection. Northern Beaches, Sydney, Australia. ","subreddit":"EarthPorn","url":"https:\/\/imgur.com\/pyswsUE","body":"","location":"Northern+Beaches+Sydney+Australia","longitude":151.29577,"latitude":-33.81465,"contryName":"Australia","contryCode":"AU","name":"Sydney Harbour National Park","test":true},
"127":{"title":"Lower Antelope Slot Canyon, Arizona, USA [OC] [2160x3840]","afterClean":"Lower Antelope Slot Canyon, Arizona, USA ","subreddit":"EarthPorn","url":"https:\/\/i.redd.it\/97vyosd59os41.jpg","body":"","location":"Canyon+Arizona+USA","longitude":-111.50098,"latitude":34.5003,"contryName":"United States","contryCode":"US","name":"Arizona","test":true},
"128":{"title":"My favorite rocks. Eastern Sierra Nevadas, CA [OC][2400x1601]","afterClean":"My favorite rocks. Eastern Sierra Nevadas, CA","subreddit":"EarthPorn","url":"https:\/\/i.redd.it\/u3eh17i3lms41.jpg","body":"","location":"Sierra+Nevadas+CA","longitude":-118.29342,"latitude":36.57855,"contryName":"United States","contryCode":"US","name":"Sierra Nevada","test":true},
"129":{"title":"Blood Meridian - Yellowstone National Park, Wyoming, USA [OC] [3943x5861]","afterClean":"Blood Meridian - Yellowstone National Park, Wyoming, USA ","subreddit":"EarthPorn","url":"https:\/\/i.redd.it\/tw2c4xjj0ms41.jpg","body":"","location":"National+Park+Wyoming+USA","longitude":-110.58846,"latitude":44.42796,"contryName":"United States","contryCode":"US","name":"Yellowstone National Park","test":true},
"130":{"title":"Fire in the sky over Diamond Beach, Iceland [1720x2250] [OC]","afterClean":"Fire in the sky over Diamond Beach, Iceland","subreddit":"EarthPorn","url":"https:\/\/i.redd.it\/rozgc8hh2ks41.jpg","body":"","location":"Beach+Iceland","longitude":-64.77653,"latitude":18.35245,"contryName":"U.S. Virgin Islands","contryCode":"VI","name":"Gibney Beach","test":true},
"131":{"title":"Olympic National Park, eastern boundary. [2918x3648] [OC]","afterClean":"Olympic National Park, eastern boundary.","subreddit":"EarthPorn","url":"https:\/\/i.redd.it\/j93riwqs4hs41.jpg","body":"","location":"Olympic+National+Park","longitude":-123.49825,"latitude":47.96909,"contryName":"United States","contryCode":"US","name":"Olympic National Park","test":true},
"132":{"title":"Geiranger Fjord, Norway [4592 x 3448][OC]","afterClean":"Geiranger Fjord, Norway ","subreddit":"EarthPorn","url":"https:\/\/i.redd.it\/ovq62fpgeis41.jpg","body":"","location":"Geiranger+Fjord+Norway","longitude":6.98333,"latitude":62.11667,"contryName":"Norway","contryCode":"NO","name":"Geirangerfjord","test":true},
"133":{"title":"Cherry Blossom at Yoshinoyama, Japan [5135x3629][OC]","afterClean":"Cherry Blossom at Yoshinoyama, Japan","subreddit":"EarthPorn","url":"https:\/\/i.redd.it\/glldv2tdjis41.jpg","body":"","location":"Yoshinoyama+Japan","longitude":135.87023,"latitude":34.35878,"contryName":"Japan","contryCode":"JP","name":"Yoshinoyama","test":true},
"134":{"title":"The outstanding views and colors of Little Cottonwood Canyon, Sandy Utah [OC] [2620x4656]","afterClean":"The outstanding views and colors of Little Cottonwood Canyon, Sandy Utah ","subreddit":"EarthPorn","url":"https:\/\/i.redd.it\/nfb5prcg9js41.jpg","body":"","location":"Sandy+Utah","longitude":-111.8841,"latitude":40.59161,"contryName":"United States","contryCode":"US","name":"Sandy","test":true},
"135":{"title":"Looking over the edge of famous Preikestolen in Norway - straight down about 1800ft (600 meters) [OC] [1788x2385] - more info in the comments","afterClean":"Looking over the edge of famous Preikestolen in Norway - straight down about ft  meters more info in the comments","subreddit":"EarthPorn","url":"https:\/\/i.redd.it\/nu0z32x0fls41.jpg","body":"","location":"Norway","longitude":10.0,"latitude":62.0,"contryName":"Norway","contryCode":"NO","name":"Norway","test":true},
"136":{"title":"Sharon Country club during blizzard, Sharon center Ohio [OC] 4800x2700","afterClean":"Sharon Country club during blizzard, Sharon center Ohio ","subreddit":"EarthPorn","url":"https:\/\/i.redd.it\/u7j8nx63aos41.jpg","body":"","location":"Sharon+Ohio","longitude":-82.66184,"latitude":40.88145,"contryName":"United States","contryCode":"US","name":"Shelby","test":true},
"137":{"title":"Stromatolites at low tide, Hamelin Pool, Shark Bay World Heritage Area, Western Australia. [OC] [1600x1067]","afterClean":"Stromatolites at low tide, Hamelin Pool, Shark Bay World Heritage Area, Western Australia. ","subreddit":"EarthPorn","url":"https:\/\/i.redd.it\/rb7iomefmks41.jpg","body":"","location":"Hamelin+Pool+Shark+Bay+Western+Australia","longitude":114.19,"latitude":-26.42513,"contryName":"Australia","contryCode":"AU","name":"Hamelin","test":true},
"138":{"title":"San Diego, California by drone. [4048x3032] [OC]","afterClean":"San Diego, California by drone.","subreddit":"EarthPorn","url":"https:\/\/i.redd.it\/yq5f0ov9mns41.jpg","body":"","location":"San+Diego+California","longitude":-117.16472,"latitude":32.71571,"contryName":"United States","contryCode":"US","name":"San Diego","test":true},
"139":{"title":"Antelope Canyon, Arizona [OC] [4032 x 3024]","afterClean":"Antelope Canyon, Arizona  ","subreddit":"EarthPorn","url":"https:\/\/i.redd.it\/vky3qcv5rms41.jpg","body":"","location":"Antelope+Canyon+Arizona","longitude":-111.41379,"latitude":36.90365,"contryName":"United States","contryCode":"US","name":"Lower Antelope Canyon","test":true},
"140":{"title":"Unnecesasity mood in the weather from Grand Teton National Park, Wyoming. [6545x4363][OC]","afterClean":"Unnecesasity mood in the weather from Grand Teton National Park, Wyoming.","subreddit":"EarthPorn","url":"https:\/\/i.redd.it\/tofgc7cynms41.jpg","body":"","location":"Teton+National+Park+Wyoming","longitude":-110.68176,"latitude":43.79044,"contryName":"United States","contryCode":"US","name":"Grand Teton National Park","test":true},
"141":{"title":"Glacier Point in Yosemite on a January afternoon [OC] [2048x1536]","afterClean":"Glacier Point in Yosemite on a January afternoon ","subreddit":"EarthPorn","url":"https:\/\/i.redd.it\/ykt0bzfzhns41.jpg","body":"","location":"Point+Yosemite","longitude":-119.59294,"latitude":37.75631,"contryName":"United States","contryCode":"US","name":"Yosemite Point","test":true},
"142":{"title":"Tetons from Gros Ventre Rd., Jackson, WY [OC] [4032x3024]","afterClean":"Tetons from Gros Ventre Rd., Jackson, WY ","subreddit":"EarthPorn","url":"https:\/\/i.redd.it\/8i29t1c6tps41.jpg","body":"","location":"Jackson+WY","longitude":-110.76243,"latitude":43.47993,"contryName":"United States","contryCode":"US","name":"Jackson","test":true},
"143":{"title":"Tonto National Forest AZ [OC] (3265x4898)","afterClean":"Tonto National Forest AZ ","subreddit":"EarthPorn","url":"https:\/\/i.redd.it\/8gyhm7wuxls41.jpg","body":"","location":"Tonto+National+Forest+AZ","longitude":-111.27649,"latitude":33.87241,"contryName":"United States","contryCode":"US","name":"Tonto National Forest","test":true},
"144":{"title":"[OC][3011x3024] Caught the exact moment before the sun rose over the Canadian Rockies.","afterClean":"x Caught the exact moment before the sun rose over the Canadian Rockies.","subreddit":"EarthPorn","url":"https:\/\/i.redd.it\/53iza60bohs41.jpg","body":"","location":"Tonto+National+Forest+AZ","longitude":-111.27649,"latitude":33.87241,"contryName":"United States","contryCode":"US","name":"Tonto National Forest","test":true},
"145":{"title":"Bavaro, Altagracia, Dominican Republic [OC] [4032x3024]","afterClean":"Bavaro, Altagracia, Dominican Republic ","subreddit":"EarthPorn","url":"https:\/\/i.redd.it\/yi2k4r7uwps41.jpg","body":"","location":"Bavaro+Altagracia+Dominican+Republic","longitude":-68.434,"latitude":18.69634,"contryName":"Dominican Republic","contryCode":"DO","name":"B\u00e1varo","test":true},
"146":{"title":"Nighttime view of the iconic Watchman from the Bridge, Zion National Park, Utah [5760x3840] [OC]","afterClean":"Nighttime view of the iconic Watchman from the Bridge, Zion National Park, Utah","subreddit":"EarthPorn","url":"https:\/\/i.redd.it\/bs9qazz48ls41.jpg","body":"","location":"Zion+National+Park+Utah","longitude":-113.02644,"latitude":37.29824,"contryName":"United States","contryCode":"US","name":"Zion National Park","test":true},
"147":{"title":"Sunset at the beach - Tasmania, Australia (4032x3024) [OC]","afterClean":"Sunset at the beach - Tasmania, Australia","subreddit":"EarthPorn","url":"https:\/\/i.imgur.com\/KJbAquS.jpg","body":"","location":"Tasmania+Australia","longitude":147.0,"latitude":-42.0,"contryName":"Australia","contryCode":"AU","name":"Tasmania","test":true},
"148":{"title":"Sequoia National Park - Sunrise [OC] [3605x2759]","afterClean":"Sequoia National Park - Sunrise ","subreddit":"EarthPorn","url":"https:\/\/i.redd.it\/jfrzi1cg5ms41.jpg","body":"","location":"Sequoia+National+Park","longitude":-118.5752,"latitude":36.50768,"contryName":"United States","contryCode":"US","name":"Sequoia National Park","test":true},
"149":{"title":"Oahu, Hawaii, USA, Instagram: princerphoto [OC] [3328 X 2487]","afterClean":"Oahu, Hawaii, USA,  princerphoto  ","subreddit":"EarthPorn","url":"https:\/\/i.redd.it\/6e8j72iqkms41.jpg","body":"","location":"Oahu+Hawaii+USA","longitude":-157.96667,"latitude":21.43333,"contryName":"United States","contryCode":"US","name":"O\u2018ahu","test":true},
"150":{"title":"Simplicity Swimming Hole, Pisgah NF, North Carolina. (OC) [2200x1467]","afterClean":"Simplicity Swimming Hole, Pisgah NF, North Carolina. ","subreddit":"EarthPorn","url":"https:\/\/i.redd.it\/t10dkvp2mms41.jpg","body":"","location":"North+Carolina","longitude":-65.95739,"latitude":18.38078,"contryName":"Puerto Rico","contryCode":"PR","name":"Carolina","test":true},
"151":{"title":"Makalawena Beach, Hawaii, Lara Hughes, [1080x1068] OC","afterClean":"Makalawena Beach, Hawaii, Lara Hughes,","subreddit":"EarthPorn","url":"https:\/\/i.redd.it\/yabd69ykyis41.png","body":"","location":"Makalawena+Beach","longitude":-156.02828,"latitude":19.79153,"contryName":"United States","contryCode":"US","name":"Makalawena Beach","test":true},
"152":{"title":"Bohemian Rapeseedy [OC] Germany, Palatinate Winetrail, [3992x6000] by IG: Farbik","afterClean":"Bohemian Rapeseedy  Germany, Palatinate Winetrail by  Farbik","subreddit":"EarthPorn","url":"https:\/\/i.redd.it\/j19j3m26sls41.jpg","body":"","location":"Germany+Palatinate","longitude":12.0,"latitude":49.5,"contryName":"Germany","contryCode":"DE","name":"Upper Palatinate","test":true},
"153":{"title":"The super moon rising behind the M\u00f6nch, a 4107m (13474.41ft) high mountain towering above the Lauterbrunnen valley [OC][6240x4160]","afterClean":"The super moon rising behind the M\u00f6nch, a m .ft high mountain towering above the Lauterbrunnen valley","subreddit":"EarthPorn","url":"https:\/\/i.redd.it\/hyp6u9gmbms41.jpg","body":"","location":"Monch+Lauterbrunnen","longitude":7.99727,"latitude":46.5585,"contryName":"Switzerland","contryCode":"CH","name":"M\u00f6nch","test":true},
"154":{"title":"St. Paul, Minnesota near the Mississippi River [OC] [1080x1920]","afterClean":"St. Paul, Minnesota near the Mississippi River ","subreddit":"EarthPorn","url":"https:\/\/i.redd.it\/vgvezigtvgs41.jpg","body":"","location":"St.+Paul+Minnesota+Mississippi","longitude":-93.09117,"latitude":44.98879,"contryName":"United States","contryCode":"US","name":"Mississippi Creative Arts Magnet School","test":true},
"155":{"title":"Trail to Auk\u0161tumala, Lithuania [OC] [3275 x 4927]","afterClean":"Trail to Auk\u0161tumala, Lithuania  ","subreddit":"EarthPorn","url":"https:\/\/i.redd.it\/0klawo05fms41.jpg","body":"","location":"Aukstumala+Lithuania","longitude":21.35592,"latitude":55.39634,"contryName":"Lithuania","contryCode":"LT","name":"Pelk\u0117 Auk\u0161tumala","test":true},
"156":{"title":"Toward the light. South Island, New Zealand {OC} (1500x1000) @williampatino_photography","afterClean":"Toward the light. South Island, New Zealand ","subreddit":"EarthPorn","url":"https:\/\/i.redd.it\/o7nlvgqn0gs41.jpg","body":"","location":"South+Island+New+Zealand","longitude":171.0,"latitude":-43.0,"contryName":"New Zealand","contryCode":"NZ","name":"South Island","test":true},
"157":{"title":"Iceland, by Gabor Nagy [OS] [1920x1280]","afterClean":"Iceland, by Gabor Nagy OS","subreddit":"EarthPorn","url":"https:\/\/mir-s3-cdn-cf.behance.net\/project_modules\/fs\/384a5486252441.5d94f8e29b304.jpg","body":"","location":"OS","longitude":72.7985,"latitude":40.52828,"contryName":"Kyrgyzstan","contryCode":"KG","name":"Osh","test":true},
"158":{"title":"Grand Canyon West - January 2020 [4032 \u00d7 3024] OC","afterClean":"Grand Canyon West - January  ","subreddit":"EarthPorn","url":"https:\/\/i.redd.it\/eld6t4ob5ns41.jpg","body":"","location":"Grand+Canyon+West","longitude":-109.53345,"latitude":38.61026,"contryName":"United States","contryCode":"US","name":"Negro Bill Canyon","test":true},
"159":{"title":"Clouds open up after a storm near El Bols\u00f3n, Argentina [OC][1320x1980]","afterClean":"Clouds open up after a storm near El Bols\u00f3n, Argentina","subreddit":"EarthPorn","url":"https:\/\/i.redd.it\/0juk5sljjls41.jpg","body":"","location":"El+Bolson+Argentina","longitude":-71.53229,"latitude":-41.94319,"contryName":"Argentina","contryCode":"AR","name":"El Bols\u00f3n Airport","test":true},
"160":{"title":"Golden Winter at Zelenci natural reserve, Slovenia [OC] [1800x1200]","afterClean":"Golden Winter at Zelenci natural reserve, Slovenia ","subreddit":"EarthPorn","url":"https:\/\/i.redd.it\/teumtsgg6ls41.jpg","body":"","location":"Slovenia","longitude":15.0,"latitude":46.08333,"contryName":"Slovenia","contryCode":"SI","name":"Slovenia","test":true},
"161":{"title":"Wilson River, Tillamook State Forest, Oregon [4608x3456][OC]","afterClean":"Wilson River, Tillamook State Forest, Oregon","subreddit":"EarthPorn","url":"https:\/\/i.redd.it\/bb771n5d2is41.jpg","body":"","location":"Wilson+River+Tillamook+State+Forest+Oregon","longitude":-123.60262,"latitude":45.49566,"contryName":"United States","contryCode":"US","name":"Wilson River Highway Forest State Park","test":true},
"162":{"title":"Lagunas Miscanti y Mi\u00f1iques, Chile [1065x811] [OC]","afterClean":"Lagunas Miscanti y Mi\u00f1iques, Chile","subreddit":"EarthPorn","url":"https:\/\/i.redd.it\/mqngj5ggnms41.png","body":"","location":"Miniques+Chile","longitude":-67.75654,"latitude":-23.80389,"contryName":"Chile","contryCode":"CL","name":"Cerro Mi\u00f1iques","test":true},
"163":{"title":"Breathing thin air at Cordillera Blanca, Peru [OC][2048x1366] More mountains from all over the world on IG @klaraharden","afterClean":"Breathing thin air at Cordillera Blanca, Peru More mountains from all over the world on","subreddit":"EarthPorn","url":"https:\/\/i.redd.it\/lda8x7qwxks41.jpg","body":"","location":"Cordillera+Blanca+Peru","longitude":-77.53472,"latitude":-9.24583,"contryName":"Peru","contryCode":"PE","name":"Cordillera Blanca","test":true},
"164":{"title":"Grand Canyon North Rim, AZ [2558 x 2340] [OC]","afterClean":"Grand Canyon North Rim, AZ ","subreddit":"EarthPorn","url":"https:\/\/i.redd.it\/wvdj28mgbls41.jpg","body":"","location":"Grand+Canyon+North+Rim+AZ","longitude":-113.241,"latitude":36.115,"contryName":"United States","contryCode":"US","name":"Grand Canyon Lodge North Rim","test":true},
"165":{"title":"Sunrise over Lake Clearwater, NZ [OC][2000x1334]","afterClean":"Sunrise over Lake Clearwater, NZ","subreddit":"EarthPorn","url":"https:\/\/i.redd.it\/pxoei0kcrks41.jpg","body":"","location":"Lake+Clearwater+NZ","longitude":171.05,"latitude":-43.6,"contryName":"New Zealand","contryCode":"NZ","name":"Lake Tripp","test":true},
"166":{"title":"Los Cuernos From The W-Trek [OC] [4032x3024]","afterClean":"Los Cuernos From The W-Trek ","subreddit":"EarthPorn","url":"https:\/\/i.redd.it\/6ub3j4drnks41.jpg","body":"","location":"Los+Cuernos","longitude":-101.09883,"latitude":25.04516,"contryName":"Mexico","contryCode":"MX","name":"Cerro Los Cuernos","test":true},
"167":{"title":"Tusheti, Georgia: the roads are spotted with beautiful waterfalls [3024x4032] [OC]","afterClean":"Tusheti, Georgia the roads are spotted with beautiful waterfalls","subreddit":"EarthPorn","url":"https:\/\/i.redd.it\/sdb3midttls41.jpg","body":"","location":"Tusheti+Georgia","longitude":45.63377,"latitude":42.3626,"contryName":"Georgia","contryCode":"GE","name":"Tusheti Region","test":true},
"168":{"title":"Langisj\u00f3r (The long sea) and the F\u00f6grufj\u00f6ll (Beautiful mountains) overlooking the Vatnaj\u00f6kull Glacier in the Highlands of Iceland. (6921x3226) [OC]. On a good day you can see over a quarter of Iceland and 5 Glacier: Vatnaj\u00f6kull, Langj\u00f6kull, Hofsj\u00f6kull, M\u00fdrdalsj\u00f6kull, and Torfaj\u00f6kull.","afterClean":"Langisj\u00f3r The long sea and the F\u00f6grufj\u00f6ll Beautiful mountains overlooking the Vatnaj\u00f6kull Glacier in the Highlands of Iceland On a good day you can see over a quarter of Iceland and  Glacier Vatnaj\u00f6kull, Langj\u00f6kull, Hofsj\u00f6kull, M\u00fdrdalsj\u00f6kull, and Torfaj\u00f6kull","subreddit":"EarthPorn","url":"https:\/\/i.redd.it\/05q933picls41.jpg","body":"","location":"Iceland+Iceland","longitude":-18.0,"latitude":65.0,"contryName":"Iceland","contryCode":"IS","name":"Iceland","test":true},
"169":{"title":"Zion Valley, Utah [1249x937] [OC]","afterClean":"Zion Valley, Utah","subreddit":"EarthPorn","url":"https:\/\/i.redd.it\/w3ncykul3ls41.jpg","body":"","location":"Zion+Valley+Utah","longitude":-113.01188,"latitude":37.16498,"contryName":"United States","contryCode":"US","name":"Zion Canyon","test":true},
"170":{"title":"Earthship. Westfjords, Iceland. [OC][1365x2048]","afterClean":"Earthship. Westfjords, Iceland.","subreddit":"EarthPorn","url":"https:\/\/i.redd.it\/hr33lkgy7ls41.jpg","body":"","location":"Iceland","longitude":-18.0,"latitude":65.0,"contryName":"Iceland","contryCode":"IS","name":"Iceland","test":true},
"171":{"title":"Palakoski, Finland [OC] [5856x3775]","afterClean":"Palakoski, Finland ","subreddit":"EarthPorn","url":"https:\/\/i.redd.it\/3m3v0ks8sjs41.jpg","body":"","location":"Finland","longitude":26.0,"latitude":64.0,"contryName":"Finland","contryCode":"FI","name":"Finland","test":true},
"172":{"title":"Attersee, Austria Hiking [1249x937] [OC]","afterClean":"Attersee, Austria Hiking","subreddit":"EarthPorn","url":"https:\/\/i.redd.it\/stvim5j13ls41.jpg","body":"","location":"Attersee+Austria","longitude":13.54848,"latitude":47.87499,"contryName":"Austria","contryCode":"AT","name":"Attersee","test":true},
"173":{"title":"Somebunny walked under the stars. Photo from my latest trip to northern Finland. [1440x2160] [OC]","afterClean":"Somebunny walked under the stars. Photo from my latest trip to northern Finland.","subreddit":"EarthPorn","url":"https:\/\/i.redd.it\/uj9qs3q3ses41.jpg","body":"","location":"Finland","longitude":26.0,"latitude":64.0,"contryName":"Finland","contryCode":"FI","name":"Finland","test":true},
"174":{"title":"Morocco desert [1920x1080] [OC]","afterClean":"Morocco desert","subreddit":"EarthPorn","url":"https:\/\/i.redd.it\/3sx4idrf1ls41.jpg","body":"","location":"Morocco","longitude":-6.0,"latitude":32.0,"contryName":"Morocco","contryCode":"MA","name":"Morocco","test":true},
"175":{"title":"A spring reflection with a memory of fall... Southern Ontario, Canada [OC][2281x3422]","afterClean":"A spring reflection with a memory of fall... Southern Ontario, Canada","subreddit":"EarthPorn","url":"https:\/\/i.redd.it\/0f8h9sdmlfs41.jpg","body":"","location":"Southern+Ontario+Canada","longitude":-87.36806,"latitude":49.31306,"contryName":"Canada","contryCode":"CA","name":"Southern Lake","test":true},
"176":{"title":"Valley of Fire, Nevada, USA [OC] [2160x3840]","afterClean":"Valley of Fire, Nevada, USA ","subreddit":"EarthPorn","url":"https:\/\/i.redd.it\/qo0wyfa2chs41.jpg","body":"","location":"Valley+of+Fire+Nevada+USA","longitude":-114.53304,"latitude":36.45609,"contryName":"United States","contryCode":"US","name":"Valley of Fire State Park","test":true},
"177":{"title":"Sunrise from the peak of Mauna Kea, Hawaii. [4608X3456] [OC]","afterClean":"Sunrise from the peak of Mauna Kea, Hawaii.","subreddit":"EarthPorn","url":"https:\/\/i.redd.it\/6gvnr1kk5js41.jpg","body":"","location":"Mauna+Kea+Hawaii","longitude":-155.47083,"latitude":19.82361,"contryName":"United States","contryCode":"US","name":"Mauna Kea","test":true},
"178":{"title":"Tuolomne Meadows, Yosemite National Park, CA [3264 x 2448] [OC]","afterClean":"Tuolomne Meadows, Yosemite National Park, CA ","subreddit":"EarthPorn","url":"https:\/\/i.redd.it\/d1t6vnguals41.jpg","body":"","location":"Yosemite+National+Park+CA","longitude":-119.55696,"latitude":37.84835,"contryName":"United States","contryCode":"US","name":"Yosemite National Park","test":true},
"179":{"title":"Sunrise through Tall Pines Ocala National Forest, Florida [OC] 3600x2400","afterClean":"Sunrise through Tall Pines Ocala National Forest, Florida ","subreddit":"EarthPorn","url":"https:\/\/i.redd.it\/dtd92ffw9fs41.jpg","body":"","location":"Ocala+National+Forest+Florida","longitude":-81.79147,"latitude":29.16692,"contryName":"United States","contryCode":"US","name":"Ocala Wildlife Management Area","test":true},
"180":{"title":"Hiking Trail Southern Austria [1249x937] [OC]","afterClean":"Hiking Trail Southern Austria","subreddit":"EarthPorn","url":"https:\/\/i.redd.it\/1ddh7yk45ls41.jpg","body":"","location":"Trail+Southern+Austria","longitude":175.2502,"latitude":-37.0482,"contryName":"New Zealand","contryCode":"NZ","name":"Southern Access","test":true},
"181":{"title":"Aldeyjarfoss at sunset. Iceland. [OC] [1803 x 2048]","afterClean":"Aldeyjarfoss at sunset. Iceland.  ","subreddit":"EarthPorn","url":"https:\/\/i.redd.it\/ngkk7d7j2is41.jpg","body":"","location":"Aldeyjarfoss+Iceland","longitude":-17.3467,"latitude":65.37013,"contryName":"Iceland","contryCode":"IS","name":"Aldeyjarfoss","test":true},
"182":{"title":"Tieton River, Washington, USA [OC] [4000x3000]","afterClean":"Tieton River, Washington, USA ","subreddit":"EarthPorn","url":"https:\/\/i.redd.it\/lx8vzxslyhs41.jpg","body":"","location":"Tieton+River+Washington+USA","longitude":-120.78674,"latitude":46.74623,"contryName":"United States","contryCode":"US","name":"Tieton River","test":true},
"183":{"title":"Taken on a hike at Skaftafell Nature Reserve in Iceland, two years ago. No sepia filter, just great light and scenery [OC][2000x1325]","afterClean":"Taken on a hike at Skaftafell Nature Reserve in Iceland, two years ago. No sepia filter, just great light and scenery","subreddit":"EarthPorn","url":"https:\/\/i.redd.it\/vikv1pifels41.jpg","body":"","location":"Nature+Reserve+Iceland","longitude":147.89,"latitude":-40.18,"contryName":"Australia","contryCode":"AU","name":"East Kangaroo Island Nature Reserve","test":true},
"184":{"title":"An unending Forest, India [4032x3024] [OC]","afterClean":"An unending Forest, India","subreddit":"EarthPorn","url":"https:\/\/i.redd.it\/qw0veocr0ls41.jpg","body":"","location":"Forest+India","longitude":78.91667,"latitude":29.83333,"contryName":"India","contryCode":"IN","name":"Mal\u0101na Reserved Forest","test":true},
"185":{"title":"A beautiful morning in the Texas Hill Country [OC] [4032x2268]","afterClean":"A beautiful morning in the Texas Hill Country  x","subreddit":"EarthPorn","url":"https:\/\/i.redd.it\/jqgtn2m40ms41.jpg","body":"","location":"Texas+Hill+Country","longitude":-99.18254,"latitude":29.61689,"contryName":"United States","contryCode":"US","name":"Hill Country State Natural Area","test":true},
"186":{"title":"Milky Way over Limfjord, Denmark [1249x1600][OC]","afterClean":"Milky Way over Limfjord, Denmark","subreddit":"EarthPorn","url":"https:\/\/i.redd.it\/bvh50pw8gfs41.jpg","body":"","location":"Limfjord+Denmark","longitude":9.16667,"latitude":56.91667,"contryName":"Denmark","contryCode":"DK","name":"Limfjorden","test":true},
"187":{"title":"Skiing in Caberfae MI OC [1440 x 1920]","afterClean":"Skiing in Caberfae MI","subreddit":"EarthPorn","url":"https:\/\/i.redd.it\/76pf3hhefns41.jpg","body":"","location":"Caberfae+MI","longitude":-85.70806,"latitude":44.24556,"contryName":"United States","contryCode":"US","name":"Caberfae Ski Resort Historical Marker","test":true},
"188":{"title":"Ancient Ambiance on the Corbi\u00e8res Massif, Southwest France, [6016 x 4000] [OC]","afterClean":"Ancient Ambiance on the Corbi\u00e8res Massif, Southwest France, ","subreddit":"EarthPorn","url":"https:\/\/imgur.com\/CNN11Iz","body":"","location":"Southwest+France","longitude":-178.15,"latitude":-14.31667,"contryName":"Wallis and Futuna","contryCode":"WF","name":"Rocher du Sud-Ouest","test":true},
"189":{"title":"Last light on the Turnagain Pass, Alaska. [4656x6687] OC","afterClean":"Last light on the Turnagain Pass, Alaska.","subreddit":"EarthPorn","url":"https:\/\/i.redd.it\/ao0255ih6cs41.jpg","body":"","location":"Turnagain+Pass+Alaska","longitude":-149.18528,"latitude":60.80333,"contryName":"United States","contryCode":"US","name":"Turnagain Pass","test":true},
"190":{"title":"I know Yosemite is posted here a lot, and I'm not a photographer, but this place did the work for me back in 2017 [OC][4320 \u00d7 2432]","afterClean":"I know Yosemite is posted here a lot, and I'm not a photographer, but this place did the work for me back in  ","subreddit":"EarthPorn","url":"https:\/\/i.redd.it\/x0l3k5d7nhs41.jpg","body":"","location":"Yosemite","longitude":-119.71903,"latitude":36.77606,"contryName":"United States","contryCode":"US","name":"Fresno Yosemite International Airport","test":true},
"191":{"title":"[OC] Fall - Rib Mountain WI [4608x3456]","afterClean":"Fall - Rib Mountain WI","subreddit":"EarthPorn","url":"https:\/\/i.redd.it\/aoeyzynmgls41.jpg","body":"","location":"Rib+Mountain+WI","longitude":-89.6754,"latitude":44.91275,"contryName":"United States","contryCode":"US","name":"Rib Mountain","test":true},
"192":{"title":"Winter beach, Vik, Lofoten, Norway [5131x3577] [OC]","afterClean":"Winter beach, Vik, Lofoten, Norway","subreddit":"EarthPorn","url":"https:\/\/i.redd.it\/9v5yvm9fejs41.jpg","body":"","location":"Lofoten+Norway","longitude":12.79496,"latitude":68.20483,"contryName":"Norway","contryCode":"NO","name":"Lofoten","test":true},
"193":{"title":"Sunset in the Great Sand Dunes, Colorado [oc][5824x 3883]@felixsunphoto","afterClean":"Sunset in the Great Sand Dunes, Colorado","subreddit":"EarthPorn","url":"https:\/\/i.redd.it\/65ob0wmxwes41.jpg","body":"","location":"Great+Sand+Dunes+Colorado","longitude":-105.51212,"latitude":37.73287,"contryName":"United States","contryCode":"US","name":"Great Sand Dunes National Park and Preserve","test":true},
"194":{"title":"An Amazing scenic vista on the Hellroaring trail of Yellowstone National Park [OC] [4656x2620]","afterClean":"An Amazing scenic vista on the Hellroaring trail of Yellowstone National Park ","subreddit":"EarthPorn","url":"https:\/\/i.redd.it\/k3ffi6uo8js41.jpg","body":"","location":"Yellowstone+National+Park","longitude":-110.58846,"latitude":44.42796,"contryName":"United States","contryCode":"US","name":"Yellowstone National Park","test":true},
"195":{"title":"Water through rocks. Cantipla, Cebu City, Philippines [3648x2736]","afterClean":"Water through rocks. Cantipla, Cebu City, Philippines","subreddit":"EarthPorn","url":"https:\/\/i.redd.it\/u6cgnqcvdks41.jpg","body":"","location":"Cebu+City+Philippines","longitude":123.89071,"latitude":10.31672,"contryName":"Philippines","contryCode":"PH","name":"Cebu City","test":true},
"196":{"title":"Little waterfall. Estonia, Suurupi [OC] [5184\u00d73456]","afterClean":"Little waterfall. Estonia, Suurupi ","subreddit":"EarthPorn","url":"https:\/\/i.redd.it\/cq5i7evgujs41.jpg","body":"","location":"Estonia+Suurupi","longitude":24.41451,"latitude":59.44194,"contryName":"Estonia","contryCode":"EE","name":"Suurupi Poolsaar","test":true},
"197":{"title":"Devils Punchbowl Waterfall, Arthur's Pass, NZ [OC][2000x1333]","afterClean":"Devils Punchbowl Waterfall, Arthur's Pass, NZ","subreddit":"EarthPorn","url":"https:\/\/i.redd.it\/qgu9it4dods41.jpg","body":"","location":"Arthur+Pass+NZ","longitude":171.58333,"latitude":-42.95,"contryName":"New Zealand","contryCode":"NZ","name":"Arthur's Pass National Park","test":true},
"198":{"title":"Coumshingaun Lake - Ireland [OC] (4656x3492)","afterClean":"Coumshingaun Lake - Ireland ","subreddit":"EarthPorn","url":"https:\/\/i.imgur.com\/CShqHUn.jpg","body":"","location":"Coumshingaun+Lake","longitude":-7.52472,"latitude":52.25028,"contryName":"Ireland","contryCode":"IE","name":"Coumshingaun Lough","test":true},
"199":{"title":"The coast of Belize [OC] [4032x3024]","afterClean":"The coast of Belize ","subreddit":"EarthPorn","url":"https:\/\/i.redd.it\/u4jhnpa15fs41.jpg","body":"","location":"Belize","longitude":-88.75,"latitude":17.25,"contryName":"Belize","contryCode":"BZ","name":"Belize","test":true},
"200":{"title":"Some Milkyway Magic for these dark and trying times. Sebago Lake, Maine. (1080x1080)[OC]","afterClean":"Some Milkyway Magic for these dark and trying times. Sebago Lake, Maine.","subreddit":"EarthPorn","url":"https:\/\/i.imgur.com\/bqSkHaz.jpg","body":"","location":"Sebago+Lake+Maine","longitude":-70.52561,"latitude":43.76091,"contryName":"United States","contryCode":"US","name":"Sebago Lake","test":true},
"201":{"title":"I shot this photo in the middle of nowhere in Norway. I have more posts on my Instagram, link in comments! [OC] [6000X4000]","afterClean":"I shot this photo in the middle of nowhere in Norway. I have more posts on my  link in comments! ","subreddit":"EarthPorn","url":"https:\/\/i.redd.it\/mjiduf2n5ds41.jpg","body":"","location":"Norway","longitude":10.0,"latitude":62.0,"contryName":"Norway","contryCode":"NO","name":"Norway","test":true},
"202":{"title":"Yamanashi Prefecture, Japan - Mt. Fuji at sunset [OC][5742x3484] IG:_caled93","afterClean":"Yamanashi Prefecture, Japan - Mt. Fuji at sunset caled","subreddit":"EarthPorn","url":"https:\/\/i.redd.it\/2wfer0vdlhs41.jpg","body":"","location":"Yamanashi+Prefecture+Japan+Mt+Fuji","longitude":138.79799,"latitude":35.46043,"contryName":"Japan","contryCode":"JP","name":"Ogura Yama","test":true},
"203":{"title":"First rays of sun on Mt. Annapurna in Nepal. [OC][6000x4000]","afterClean":"First rays of sun on Mt. Annapurna in Nepal.","subreddit":"EarthPorn","url":"https:\/\/i.redd.it\/pbsy5mk9ois41.jpg","body":"","location":"Annapurna+Nepal","longitude":83.82053,"latitude":28.59564,"contryName":"Nepal","contryCode":"NP","name":"Annapurna I","test":true},
"204":{"title":"Ngorongoro Crater, Tanzania (OC, 3872x2592)","afterClean":"Ngorongoro Crater, Tanzania","subreddit":"EarthPorn","url":"https:\/\/i.redd.it\/e0r79edrvjs41.jpg","body":"","location":"Ngorongoro+Crater+Tanzania","longitude":35.58333,"latitude":-3.16667,"contryName":"Tanzania","contryCode":"TZ","name":"Ngorongoro Crater","test":true},
"205":{"title":"Sunset in La Boquita Nicaragua [OC] [3024x4032]","afterClean":"Sunset in La Boquita Nicaragua ","subreddit":"EarthPorn","url":"https:\/\/i.redd.it\/5afggfx0ris41.jpg","body":"","location":"Sunset+La","longitude":-92.06845,"latitude":30.41131,"contryName":"United States","contryCode":"US","name":"Sunset","test":true},
"206":{"title":"Peaceful green. Poland [OC] [3263x2448]","afterClean":"Peaceful green. Poland ","subreddit":"EarthPorn","url":"https:\/\/i.redd.it\/5b46bnulcfs41.jpg","body":"","location":"Poland","longitude":20.0,"latitude":52.0,"contryName":"Poland","contryCode":"PL","name":"Poland","test":true},
"207":{"title":"Sunset at Ngorongoro Crater, Tanzania (OC, 3872x2592)","afterClean":"Sunset at Ngorongoro Crater, Tanzania","subreddit":"EarthPorn","url":"https:\/\/i.redd.it\/0j1wkat5wjs41.jpg","body":"","location":"Ngorongoro+Crater+Tanzania","longitude":35.58333,"latitude":-3.16667,"contryName":"Tanzania","contryCode":"TZ","name":"Ngorongoro Crater","test":true},
"208":{"title":"Rio Grande.New Mexico[4160X3120][OC]","afterClean":"Rio Grande.New MexicoX","subreddit":"EarthPorn","url":"https:\/\/i.redd.it\/kqk48z8t4hs41.jpg","body":"","location":"Rio","longitude":-43.18223,"latitude":-22.90642,"contryName":"Brazil","contryCode":"BR","name":"Rio de Janeiro","test":true},
"209":{"title":"Calm afternoon along the Bay of Fundy, Nova Scotia Western shore [4032x3024] [OC]","afterClean":"Calm afternoon along the Bay of Fundy, Nova Scotia Western shore","subreddit":"EarthPorn","url":"https:\/\/i.imgur.com\/FV40Puy.jpg","body":"","location":"Nova+Scotia+Western","longitude":-64.66173,"latitude":43.98936,"contryName":"Canada","contryCode":"CA","name":"Western Head","test":true},
"210":{"title":"Yosemite sunsets, Yosemite, California [OC] [4608x3456]","afterClean":"Yosemite sunsets, Yosemite, California ","subreddit":"EarthPorn","url":"https:\/\/i.redd.it\/0n1vwevinfs41.jpg","body":"","location":"Yosemite+Yosemite+California","longitude":-119.71903,"latitude":36.77606,"contryName":"United States","contryCode":"US","name":"Fresno Yosemite International Airport","test":true},
"211":{"title":"Moon set at sun rise. Swiss Mountains [OC] [2017x1512]","afterClean":"Moon set at sun rise. Swiss Mountains ","subreddit":"EarthPorn","url":"https:\/\/i.redd.it\/glalrcjl1fs41.jpg","body":"","location":"Moon","longitude":166.75,"latitude":-77.8,"contryName":"Antarctica","contryCode":"AQ","name":"Half Moon Crater","test":true},
"212":{"title":"Incredible colors of the cliffs in Zion National Park, Hurrican Utah [OC] [2700x1836]","afterClean":"Incredible colors of the cliffs in Zion National Park, Hurrican Utah ","subreddit":"EarthPorn","url":"https:\/\/i.redd.it\/9tptqsdn5js41.jpg","body":"","location":"Zion+National","longitude":-113.02644,"latitude":37.29824,"contryName":"United States","contryCode":"US","name":"Zion National Park","test":true},
"213":{"title":"Attabad Lake, Gilgit Baltistan, Pakistan [36.2993000, 74.8341000 ] [3120X4160] [OC] - This beautiful lake emerged after a disastrous landslide. https:\/\/en.m.wikipedia.org\/wiki\/Attabad_Lake","afterClean":"Attabad Lake, Gilgit Baltistan, Pakistan This beautiful lake emerged after a disastrous landslide. https\/\/en.m.wikipedia.org\/wiki\/Attabad_Lake","subreddit":"EarthPorn","url":"https:\/\/i.redd.it\/gn4mq9lw0gs41.jpg","body":"","location":"Lake+Gilgit+Baltistan+Pakistan","longitude":75.63034,"latitude":35.22844,"contryName":"Pakistan","contryCode":"PK","name":"Satpara Lake","test":true},
"214":{"title":"Moiry Glacier, Switzerland [2248x3147] [OC]","afterClean":"Moiry Glacier, Switzerland","subreddit":"EarthPorn","url":"https:\/\/i.redd.it\/asqco0qkxes41.jpg","body":"","location":"Moiry+Glacier+Switzerland","longitude":7.59697,"latitude":46.07456,"contryName":"Switzerland","contryCode":"CH","name":"Glacier de Moiry","test":true},
"215":{"title":"Franconia Ridge Loop, New Hampshire, USA. [OC] (4608x2176)","afterClean":"Franconia Ridge Loop, New Hampshire, USA. ","subreddit":"EarthPorn","url":"https:\/\/i.redd.it\/mje4d7m8dis41.jpg","body":"","location":"Loop+New+Hampshire+USA","longitude":-71.45924,"latitude":43.9609,"contryName":"United States","contryCode":"US","name":"Pyramid Loop Trail","test":true},
"216":{"title":"Joyce Kilmer Memorial Forest at Sunset [OC][3936x2624]","afterClean":"Joyce Kilmer Memorial Forest at Sunset","subreddit":"EarthPorn","url":"https:\/\/i.redd.it\/j9pxc43pihs41.jpg","body":"","location":"Joyce+Kilmer","longitude":-83.97611,"latitude":35.40458,"contryName":"United States","contryCode":"US","name":"Joyce Kilmer-Slickrock Wilderness","test":true},
"217":{"title":"Fuji-San has a little sister in Oregon. Trillium Lake, Mt. Hood. [2894x3617] [oc]","afterClean":"Fuji-San has a little sister in Oregon. Trillium Lake, Mt. Hood.","subreddit":"EarthPorn","url":"https:\/\/i.redd.it\/a0ql0ex7zfs41.jpg","body":"","location":"Lake+Mt+Hood","longitude":-121.79593,"latitude":45.4962,"contryName":"United States","contryCode":"US","name":"Lost Lake Butte","test":true},
"218":{"title":"Ice Lake, Wallowa Mountains, Oregon. (OC) [1467x2200]","afterClean":"Ice Lake, Wallowa Mountains, Oregon. ","subreddit":"EarthPorn","url":"https:\/\/i.redd.it\/44sxewg56fs41.jpg","body":"","location":"Wallowa+Mountains+Oregon","longitude":-117.31768,"latitude":45.19987,"contryName":"United States","contryCode":"US","name":"Wallowa Mountains","test":true},
"219":{"title":"Bluffs over the Meramec River briefly illuminated by the setting sun, Ozarks [OC] (2286x2857)","afterClean":"Bluffs over the Meramec River briefly illuminated by the setting sun, Ozarks ","subreddit":"EarthPorn","url":"https:\/\/i.imgur.com\/fBWJN7I.jpg","body":"","location":"Meramec+River","longitude":-90.34428,"latitude":38.38978,"contryName":"United States","contryCode":"US","name":"Meramec River","test":true},
"220":{"title":"Lake Kawaguchiko, Yamanashi Prefecture, Japan - Mt. Fuji with some moody clouds and droplets on lens [OC][5999x3147] IG:_caled93","afterClean":"Lake Kawaguchiko, Yamanashi Prefecture, Japan - Mt. Fuji with some moody clouds and droplets on lens caled","subreddit":"EarthPorn","url":"https:\/\/i.redd.it\/ce3zqvvmjhs41.jpg","body":"","location":"Yamanashi+Prefecture+Japan+Mt+Fuji","longitude":138.79799,"latitude":35.46043,"contryName":"Japan","contryCode":"JP","name":"Ogura Yama","test":true},
"221":{"title":"The Washington starter pack- Lake reflections, mountains, clouds, evergreens [OC] [1536x2048]","afterClean":"The Washington starter pack- Lake reflections, mountains, clouds, evergreens ","subreddit":"EarthPorn","url":"https:\/\/i.redd.it\/qp5nzen6tbs41.jpg","body":"","location":"Washington+Lake","longitude":-92.87938,"latitude":44.9958,"contryName":"United States","contryCode":"US","name":"Lake Elmo","test":true},
"222":{"title":"Forest in V\u00e4rmland, Sweden [3480x4640] [OC]","afterClean":"Forest in V\u00e4rmland, Sweden","subreddit":"EarthPorn","url":"https:\/\/i.imgur.com\/sns1yux.jpg","body":"","location":"Forest+Varmland+Sweden","longitude":12.75,"latitude":60.5,"contryName":"Sweden","contryCode":"SE","name":"Finnskogen","test":true},
"223":{"title":"Great Sand Dunes NP [OC] [4032x3024]","afterClean":"Great Sand Dunes NP ","subreddit":"EarthPorn","url":"https:\/\/i.redd.it\/vj12dejjyds41.jpg","body":"","location":"Great+Sand+Dunes","longitude":26.0,"latitude":27.0,"contryName":"Egypt","contryCode":"EG","name":"Great Sand Sea","test":true},
"224":{"title":"Beautiful Bluebell flowers up Little Cottonwood Canyon, Sandy Utah [OC] [2620x4656]","afterClean":"Beautiful Bluebell flowers up Little Cottonwood Canyon, Sandy Utah ","subreddit":"EarthPorn","url":"https:\/\/i.redd.it\/0p7ups4q6js41.jpg","body":"","location":"Cottonwood+Canyon","longitude":-117.88152,"latitude":39.97325,"contryName":"United States","contryCode":"US","name":"Cottonwood Canyon","test":true},
"225":{"title":"Mt. Cook Village, New Zealand [OC] [4032 x 2260]","afterClean":"Mt. Cook Village, New Zealand  ","subreddit":"EarthPorn","url":"https:\/\/i.redd.it\/2293uwntois41.jpg","body":"","location":"Cook+Village+New+Zealand","longitude":170.09926,"latitude":-43.73709,"contryName":"New Zealand","contryCode":"NZ","name":"Mount Cook Village","test":true},
"226":{"title":"Cheakamus Lake, as seen from the musical bumps trail, Garibaldi Provincial Park, Whistler, BC [OC][5005x1595]","afterClean":"Cheakamus Lake, as seen from the musical bumps trail, Garibaldi Provincial Park, Whistler, BC","subreddit":"EarthPorn","url":"https:\/\/i.redd.it\/3lq659pwzhs41.jpg","body":"","location":"Garibaldi+Provincial","longitude":-122.55304,"latitude":50.01061,"contryName":"Canada","contryCode":"CA","name":"Garibaldi Provincial Park","test":true},
"227":{"title":"Taking a wander through the forests of Vancouver Island, British Columbia [4913x3286] [OC]","afterClean":"Taking a wander through the forests of Vancouver Island, British Columbia","subreddit":"EarthPorn","url":"https:\/\/i.redd.it\/jwptslvypes41.jpg","body":"","location":"Vancouver+Island+British+Columbia","longitude":-126.48958,"latitude":49.75152,"contryName":"Canada","contryCode":"CA","name":"Vancouver Island","test":true},
"228":{"title":"Sunset at Crystal Cove State Park, CA. [OC] [2322x4128]","afterClean":"Sunset at Crystal Cove State Park, CA. ","subreddit":"EarthPorn","url":"https:\/\/i.redd.it\/kldncagawis41.jpg","body":"","location":"Crystal+Cove+State+Park+CA","longitude":-117.81089,"latitude":33.57058,"contryName":"United States","contryCode":"US","name":"Crystal Cove State Park","test":true},
"229":{"title":"Arrival of Spring in Sherbrooke, Canada (OC) (3648x2736)","afterClean":"Arrival of Spring in Sherbrooke, Canada ","subreddit":"EarthPorn","url":"https:\/\/i.redd.it\/xqmkzuy01hs41.jpg","body":"","location":"Sherbrooke+Canada","longitude":-71.89908,"latitude":45.40008,"contryName":"Canada","contryCode":"CA","name":"Sherbrooke","test":true},
"230":{"title":"Chittenango Falls, Cazenovia, NY [OC] [4747x3169]","afterClean":"Chittenango Falls, Cazenovia, NY ","subreddit":"EarthPorn","url":"https:\/\/i.redd.it\/n7iop9hpzfs41.jpg","body":"","location":"Cazenovia+NY","longitude":-75.85269,"latitude":42.93007,"contryName":"United States","contryCode":"US","name":"Cazenovia","test":true},
"231":{"title":"Portage Glacier, Alaska (OC) 4032X3024","afterClean":"Portage Glacier, Alaska ","subreddit":"EarthPorn","url":"https:\/\/i.redd.it\/nngslqe1hgs41.jpg","body":"","location":"Portage+Glacier+Alaska","longitude":-148.80315,"latitude":60.71883,"contryName":"United States","contryCode":"US","name":"Portage Glacier","test":true},
"232":{"title":"Five Mile Creek, Wilson's Promontory, Victoria, Australia [OC] [1600x1067]","afterClean":"Five Mile Creek, Wilson's Promontory, Victoria, Australia ","subreddit":"EarthPorn","url":"https:\/\/i.redd.it\/ibbbs9ujdds41.jpg","body":"","location":"Wilson+Victoria+Australia","longitude":144.51871,"latitude":-38.0416,"contryName":"Australia","contryCode":"AU","name":"Point Wilson","test":true},
"233":{"title":"Bathed in Light \u2022 The Grampians, Australia [1067x1600] [OC]","afterClean":"Bathed in Light \u2022 The Grampians, Australia","subreddit":"EarthPorn","url":"https:\/\/i.redd.it\/05e4mdk03bs41.jpg","body":"","location":"Light+Australia","longitude":-45.648,"latitude":-60.699,"contryName":"Antarctica","contryCode":"AQ","name":"Light Lake","test":true},
"234":{"title":"Navajo Lake. Nothern New Mexico[4160x3120][OC]","afterClean":"Navajo Lake. Nothern New Mexicox","subreddit":"EarthPorn","url":"https:\/\/i.redd.it\/nqqqwyghnhs41.jpg","body":"","location":"Navajo+Lake","longitude":-110.70086,"latitude":34.32974,"contryName":"United States","contryCode":"US","name":"Black Canyon Lake","test":true},
"235":{"title":"Montana Rockies at sunset [OC][4032x3024]","afterClean":"Montana Rockies at sunset","subreddit":"EarthPorn","url":"https:\/\/i.redd.it\/6azslmdpzds41.jpg","body":"","location":"Montana+Rockies","longitude":-112.44613,"latitude":45.99882,"contryName":"United States","contryCode":"US","name":"Our Lady of the Rockies","test":true},
"236":{"title":"Somewhere in Hawaii, by Me [1080x810] OC","afterClean":"Somewhere in Hawaii, by Me","subreddit":"EarthPorn","url":"https:\/\/i.redd.it\/89f7v9395gs41.jpg","body":"","location":"Hawaii+Me","longitude":-69.33661,"latitude":44.39729,"contryName":"United States","contryCode":"US","name":"Birch Island","test":true},
"237":{"title":"Fall walks along the Eklutna Tailrace in Alaska. [1080x1350] OC","afterClean":"Fall walks along the Eklutna Tailrace in Alaska.","subreddit":"EarthPorn","url":"https:\/\/i.redd.it\/umhvzbhsc8s41.jpg","body":"","location":"Alaska","longitude":-150.00028,"latitude":64.00028,"contryName":"United States","contryCode":"US","name":"Alaska","test":true},
"238":{"title":"We're getting very \"Windows XP\" up in these California hills [OC] [3000 x 2000]","afterClean":"We're getting very \"Windows XP\" up in these California hills  ","subreddit":"EarthPorn","url":"https:\/\/i.redd.it\/3iw4e8g7t7s41.jpg","body":"","location":"California","longitude":-116.78467,"latitude":34.68743,"contryName":"United States","contryCode":"US","name":"Southern California","test":true},
"239":{"title":"Terra Tomah Mountain, Rocky Mountain National Park [OC][4032x3024]","afterClean":"Terra Tomah Mountain, Rocky Mountain National Park","subreddit":"EarthPorn","url":"https:\/\/i.redd.it\/9l942fen4es41.jpg","body":"","location":"Mountain+Rocky+Mountain+National+Park","longitude":-105.68364,"latitude":40.34281,"contryName":"United States","contryCode":"US","name":"Rocky Mountain National Park","test":true},
"240":{"title":"Island lake, Colorado [oc]@EKD Productions [1920x 1080]","afterClean":"Island lake, Colorado  Productions","subreddit":"EarthPorn","url":"https:\/\/i.redd.it\/lp9414wpwfs41.png","body":"","location":"Island+Colorado","longitude":-79.84806,"latitude":9.15473,"contryName":"Panama","contryCode":"PA","name":"Barro Colorado Island","test":true},
"241":{"title":"Golden colored badlands at Zabriskie point, Death Valley -California (2160x1635)[OC]","afterClean":"Golden colored badlands at Zabriskie point, Death Valley -California","subreddit":"EarthPorn","url":"https:\/\/i.redd.it\/0h0jtviqjgs41.jpg","body":"","location":"Death+Valley","longitude":-116.817,"latitude":36.24662,"contryName":"United States","contryCode":"US","name":"Death Valley","test":true},
"242":{"title":"Happy Easter! [OC] Palatinate Wine Trail, Germany [5988x3984] by IG: Farbik","afterClean":"Happy Easter!  Palatinate Wine Trail, Germany by  Farbik","subreddit":"EarthPorn","url":"https:\/\/i.redd.it\/w15es07p3gs41.jpg","body":"","location":"Palatinate+Wine","longitude":8.27971,"latitude":49.99892,"contryName":"Germany","contryCode":"DE","name":"Wine Gate","test":true},
"243":{"title":"Around Waterton National Park, Canada. [3286 \u00d7 1866] [OC]","afterClean":"Around Waterton National Park, Canada. ","subreddit":"EarthPorn","url":"https:\/\/i.redd.it\/p5sbfxdr2gs41.jpg","body":"","location":"Waterton+National+Park+Canada","longitude":-113.86863,"latitude":49.08325,"contryName":"Canada","contryCode":"CA","name":"Waterton Lakes National Park of Canada","test":true},
"244":{"title":"Sunset, Pirin Mountain, Bulgaria. [5984x3376] [OC]","afterClean":"Sunset, Pirin Mountain, Bulgaria.","subreddit":"EarthPorn","url":"https:\/\/i.redd.it\/ozl3few77fs41.jpg","body":"","location":"Pirin+Mountain+Bulgaria","longitude":23.3,"latitude":41.83333,"contryName":"Bulgaria","contryCode":"BG","name":"Pirin","test":true},
"245":{"title":"Happy Easter! Spring still hasn\u2019t quite wrested the White Mountains from winter\u2019s clutches. [4032x3024] [OC]","afterClean":"Happy Easter! Spring still hasn\u2019t quite wrested the White Mountains from winter\u2019s clutches.","subreddit":"EarthPorn","url":"https:\/\/i.redd.it\/c0nkzrtjles41.jpg","body":"","location":"White","longitude":25.0,"latitude":53.0,"contryName":"Belarus","contryCode":"BY","name":"White Russia","test":true},
"246":{"title":"A nice socially-distanced walk along the North Shore of Lake Tahoe :) [1074 x 1069] [OC]","afterClean":"A nice socially-distanced walk along the North Shore of Lake Tahoe  ","subreddit":"EarthPorn","url":"https:\/\/i.redd.it\/8awcnujnr9s41.jpg","body":"","location":"Lake+Tahoe","longitude":-120.03343,"latitude":39.096,"contryName":"United States","contryCode":"US","name":"Lake Tahoe","test":true},
"247":{"title":"Mood and Drama on the Australian Coast 2048x3069 [OC] IG: @mattfischer_photo","afterClean":"Mood and Drama on the Australian Coast","subreddit":"EarthPorn","url":"https:\/\/i.redd.it\/bgsrkeq3tes41.jpg","body":"","location":"Drama","longitude":24.1473,"latitude":41.15283,"contryName":"Greece","contryCode":"GR","name":"Drama","test":true},
"248":{"title":"Bastei Saxon Switzerland National Park [OC][3438 \u00d7 5157]","afterClean":"Bastei Saxon Switzerland National Park  \u00d7","subreddit":"EarthPorn","url":"https:\/\/i.redd.it\/ie6nh2hiqcs41.jpg","body":"","location":"Switzerland+National+Park","longitude":10.2,"latitude":46.66667,"contryName":"Switzerland","contryCode":"CH","name":"Schweizer Nationalpark","test":true},
"249":{"title":"Spanish Peaks sunset from last night in Bozeman, Montana [OC][900x1350]","afterClean":"Spanish Peaks sunset from last night in Bozeman, Montana","subreddit":"EarthPorn","url":"https:\/\/i.redd.it\/x8r6rvsut8s41.jpg","body":"","location":"Bozeman+Montana","longitude":-111.03856,"latitude":45.67965,"contryName":"United States","contryCode":"US","name":"Bozeman","test":true},
"250":{"title":"The Emerald Water of Oahu [3983x2833] [OC]","afterClean":"The Emerald Water of Oahu","subreddit":"EarthPorn","url":"https:\/\/i.redd.it\/r13a6ylkjas41.jpg","body":"","location":"Emerald+Water","longitude":-111.79931,"latitude":33.3881,"contryName":"United States","contryCode":"US","name":"Emerald Acres Number Two Subdivision Water Retention Basin","test":true},
"251":{"title":"Nuclear Lake, Pawling NY [OC] [6000x4000]","afterClean":"Nuclear Lake, Pawling NY ","subreddit":"EarthPorn","url":"https:\/\/i.redd.it\/jwnau755jhs41.jpg","body":"","location":"Lake+Pawling+NY","longitude":-73.61001,"latitude":41.55236,"contryName":"United States","contryCode":"US","name":"Duane Lake Academy","test":true},
"252":{"title":"Rocks and water near the highest point in continental Portugal, in Serra da Estrela Natural Park [OC] [2048x1365]","afterClean":"Rocks and water near the highest point in continental Portugal, in Serra da Estrela Natural Park ","subreddit":"EarthPorn","url":"https:\/\/i.imgur.com\/RWQCfd5.jpg","body":"","location":"Portugal+Serra","longitude":-7.61297,"latitude":40.32185,"contryName":"Portugal","contryCode":"PT","name":"Serra da Estrela - Torre","test":true},
"253":{"title":"Delphi Falls, Delphi Falls, NY (November 2019) [OC] [6048x4024]","afterClean":"Delphi Falls, Delphi Falls, NY November  ","subreddit":"EarthPorn","url":"https:\/\/i.redd.it\/mj5a12720gs41.jpg","body":"","location":"Delphi+Falls+Delphi+Falls+NY","longitude":-75.91353,"latitude":42.87646,"contryName":"United States","contryCode":"US","name":"Delphi Falls","test":true},
"254":{"title":"The sun perfectly hidden except two diamond rings - Albright Peak, Grand Teton National Park, WY [OC] [3383x2255] IG: @soulcreature","afterClean":"The sun perfectly hidden except two diamond rings - Albright Peak, Grand Teton National Park, WY  x","subreddit":"EarthPorn","url":"https:\/\/i.redd.it\/9gnqna91qfs41.jpg","body":"","location":"Grand+Teton+National+Park+WY","longitude":-110.68176,"latitude":43.79044,"contryName":"United States","contryCode":"US","name":"Grand Teton National Park","test":true},